brand,store_name,lat,lng
"サークルK","自由ケ丘",35.1779648,136.9671651
"サークルK","鳴海住宅",35.0846914,136.9447412
"サークルK","若葉通",35.196526,136.9226989
"サークルK","美山",35.0651884,137.1125672
"サークルK","西春",35.244112,136.8670513
"サークルK","平和通",35.4181164,136.7567215
"サークルK","九丁堀",35.1470419,136.8996531
"サークルK","大江",35.0940818,136.9136324
"サークルK","汐路",35.1297645,136.9401395
"サークルK","三軒町",35.082578,137.1388252
"サークルK","寿町",35.0556168,137.1333959
"サークルK","八王子",35.1403197,136.8422272
"サークルK","大林",35.0429993,137.139538
"サークルK","中山",35.1389963,136.9301589
"サークルK","北岡崎",34.9727071,137.1582976
"サークルK","千成通",35.1634286,136.867374
"サークルK","柴田本通",35.0740049,136.9109245
"サークルK","二村台",35.0633448,137.007648
"サークルK","神明町",34.9982877,137.0048202
"サークルK","一里山",35.0264183,137.0379162
"サークルK","五本松",35.1334635,136.9031534
"サークルK","広見",35.4168579,137.0618272
"サークルK","大須",35.1577579,136.9035603
"サークルK","青木",35.117617,137.1823
"サークルK","康生通",35.1933366,136.8795606
"サークルK","野田",34.981042,137.0298179
"サークルK","北浦",35.3116034,136.7866739
"サークルK","昭和町",34.9452204,137.1199831
"サークルK","新正",34.9583182,136.6183931
"サークルK","竜美ケ丘",34.9463463,137.1771473
"サークルK","六軒",35.3996452,136.8593448
"サークルK","横須賀町",35.0134899,136.8835186
"サークルK","若林",35.0256973,137.0961814
"サークルK","榎戸",34.9052166,136.8309389
"サークルK","黒川",35.1974288,136.9115078
"サークルK","平山",35.0522678,137.1721348
"サークルK","明和",35.0499349,137.1620438
"サークルK","南三条",35.1091661,136.9032545
"サークルK","さくらが丘",35.1637947,136.9871451
"サークルK","才道",35.0245164,136.9195851
"サークルK","泉",35.3622078,137.1799089
"サークルK","豊田朝日",35.0941659,137.146335
"サークルK","朝倉",34.9940637,136.864941
"サークルK","中畑",34.8695578,137.0245555
"サークルK","大西町",34.9425748,137.1840579
"サークルK","本今",35.3453466,136.6067683
"サークルK","大府中央",35.0150601,136.9606431
"サークルK","新栄一丁目",35.1660882,136.9170088
"サークルK","東公園",34.959978,137.1877958
"サークルK","幸心",35.211195,136.9508539
"サークルK","南外山",35.2625141,136.9297843
"サークルK","山田",35.4695598,136.8602915
"サークルK","内田橋",35.1111019,136.909082
"サークルK","豊田インター",35.0663575,137.1250881
"サークルK","名和",35.0576578,136.9158839
"サークルK","要町",35.0736592,136.9226546
"サークルK","河間",35.3831225,136.601506
"サークルK","妙音通",35.1176706,136.9318518
"サークルK","春木",35.0831132,137.0410433
"サークルK","堀割",34.8520349,136.9230227
"サークルK","中ノ坪",35.0535568,137.0075874
"サークルK","岡崎緑ケ丘",34.9181464,137.1825481
"サークルK","藤前",35.089064,136.8330393
"サークルK","名駅二丁目",35.1746027,136.8823063
"サークルK","白川",35.1628962,136.8956607
"サークルK","三河安城駅前",34.9682339,137.0594261
"サークルK","蟹江錦",35.1346942,136.7805026
"サークルK","上野台",35.0136568,136.9330845
"サークルK","住崎",34.8597173,137.048662
"サークルK","岩成台",35.27204,137.0378329
"サークルK","中川辺",35.4833758,137.0642129
"サークルK","白金",35.1471922,136.9152518
"サークルK","春日",35.2293493,136.8528812
"サークルK","高木町",34.9603496,137.1133159
"サークルK","福島",35.1843785,136.8187661
"サークルK","五女子",35.1458728,136.8822436
"サークルK","安八明神",35.3373324,136.6613251
"サークルK","川原通",35.1572918,136.9528482
"サークルK","大坪",35.1342677,136.979747
"サークルK","安城大山",34.9477275,137.083225
"サークルK","稲熊",34.9658363,137.1835269
"サークルK","関小瀬",35.4936247,136.8880461
"サークルK","土古",35.1134869,136.8613158
"サークルK","大須観音",35.1600105,136.8987526
"サークルK","知多",35.1112475,136.8258499
"サークルK","岡崎青木橋",34.9912613,137.1704158
"サークルK","弥富駅前",35.1139705,136.727038
"サークルK","森岡",35.0031002,136.9493556
"サークルK","七宗",35.5245353,137.1146969
"サークルK","大高",35.0752394,136.9427418
"サークルK","豊田北間",35.0400548,137.0945418
"サークルK","万場大橋",35.1562378,136.8333272
"サークルK","名四弥富",35.0712756,136.7599372
"サークルK","共栄",35.0382356,136.9577533
"サークルK","今伊勢",35.3149812,136.7967539
"サークルK","橘",35.1534504,136.9086601
"サークルK","大池公園",35.0280187,136.9031273
"サークルK","七番町",35.116198,136.8869446
"サークルK","本荘中ノ町",35.4044615,136.7348989
"サークルK","板倉",34.9792354,137.0440678
"サークルK","西矢田",35.1942686,136.9416164
"サークルK","刈谷若松",34.986609,137.0090204
"サークルK","楠村",34.8523615,137.0153961
"サークルK","下山",35.0374029,137.3135818
"サークルK","笠松門間",35.3582196,136.7403846
"サークルK","東かなえ",35.5048091,137.8428373
"サークルK","船津",34.4579816,136.8427975
"サークルK","飯田北方",35.5077551,137.8018896
"サークルK","海津",35.2235832,136.6394932
"サークルK","北本郷",34.9610549,137.1311704
"サークルK","豊田豊栄",35.0447933,137.1540947
"サークルK","みのかわ",34.9232491,137.1990165
"サークルK","木ノ本",35.4164915,136.7472983
"サークルK","菊井一丁目",35.1834988,136.8834528
"サークルK","国府宮",35.2499902,136.8014065
"サークルK","東海上野",35.0444811,136.9121648
"サークルK","新舞子",34.9533595,136.8326676
"サークルK","太郎丸",35.4932513,136.8086997
"サークルK","くまいでん",35.1367525,136.8126498
"サークルK","夫婦岩",34.5069394,136.7823503
"サークルK","白壁",35.1818615,136.9132584
"サークルK","刈谷泉田",35.0221352,137.0073429
"サークルK","菱池",35.1988719,136.9862515
"サークルK","御園",35.1659709,136.8972604
"サークルK","豊明新栄",35.0527345,136.9835695
"サークルK","音羽二丁目",35.3352566,137.1177263
"サークルK","生津",35.4044587,136.6899867
"サークルK","久屋通",35.1773449,136.90852
"サークルK","安城住吉",34.9802469,137.0786039
"サークルK","新浦戸",34.7633253,136.9197771
"サークルK","黄金通一丁目",35.1665984,136.8725544
"サークルK","大高駅前",35.068776,136.9398224
"サークルK","藤山台",35.2797751,137.0353247
"サークルK","伊那境",35.8319663,137.9686538
"サークルK","一宮運動場前",35.2986638,136.8465505
"サークルK","犬山前原",35.3612543,136.9706953
"サークルK","江口",34.9348251,137.1575305
"サークルK","千成西",35.1624626,136.8575559
"サークルK","高森下市田",35.5455644,137.8769116
"サークルK","池下駅前",35.1685044,136.9454483
"サークルK","豊田西岡",35.0466855,137.0602334
"サークルK","出川",35.2690289,137.0167768
"サークルK","一ツ木",35.0135023,137.0211112
"サークルK","関下有知",35.5184253,136.9063854
"サークルK","権田町",34.8645076,136.9845591
"サークルK","小牧東新町",35.2856776,136.9277134
"サークルK","中津川落合",35.5138747,137.5305838
"サークルK","東田原",34.6611142,136.1127188
"サークルK","御船",35.1343514,137.1920374
"サークルK","小園前",34.88121,137.1054982
"サークルK","下瀬木",35.0594881,136.9428615
"サークルK","岡崎正名",34.8912093,137.1297348
"サークルK","足助大橋",35.1330066,137.3073669
"サークルK","明智",35.310702,137.3904378
"サークルK","山岡",35.3526625,137.3901029
"サークルK","恵那峡",35.4715162,137.4113037
"サークルK","田島",35.44701,137.0220071
"サークルK","一色野田",34.7985877,137.0418153
"サークルK","上三本松",34.896695,137.2619345
"サークルK","伊勢中島",34.4932252,136.6904086
"サークルK","弥次エ",35.0891685,136.9235538
"サークルK","新知",34.9792452,136.861413
"サークルK","四日市下之宮",35.018754,136.6355809
"サークルK","土岐高前",35.3228143,137.1949595
"サークルK","関桜町",35.4932281,136.9112942
"サークルK","安井",35.2084777,136.9171488
"サークルK","柳津佐波",35.3651185,136.7207469
"サークルK","春日井花長",35.2343173,136.9407347
"サークルK","弥富通",35.1199798,136.9571496
"サークルK","蟹江本町",35.1333506,136.7965623
"サークルK","荒畑",35.15024,136.9224901
"サークルK","坂祝黒岩",35.4420367,136.9735724
"サークルK","豊明榎山",35.0620557,136.9935882
"サークルK","弁天通",35.1924709,136.8915907
"サークルK","恵那インター",35.4558066,137.3951867
"サークルK","津大門",34.7204129,136.5159886
"サークルK","小牧舟津",35.2854752,136.9009156
"サークルK","春日井鳥居松",35.2442138,136.9715817
"サークルK","武芸川",35.5227259,136.8518678
"サークルK","加茂山手",35.4537813,137.0241286
"サークルK","名所ケ峯",35.0300229,136.9802798
"サークルK","志摩甲賀",34.3123146,136.8648724
"サークルK","黄金通四丁目",35.160368,136.8707129
"サークルK","篠の風",35.0949158,136.9760881
"サークルK","緑高校前",35.0806951,136.9633199
"サークルK","一宮馬引",35.3060927,136.7750561
"サークルK","大平駒場",34.9436329,137.1975267
"サークルK","尾頭橋通",35.1439841,136.8890541
"サークルK","長興寺",35.0709857,137.1649626
"サークルK","椿町",35.1679733,136.8789119
"サークルK","一色新町",35.1269629,136.8299488
"サークルK","東郷新池",35.0912422,137.0320447
"サークルK","名張蔵持",34.6368469,136.1184995
"サークルK","木瀬",35.2146185,137.2336722
"サークルK","春日井牛山",35.274879,136.9431216
"サークルK","瀬戸川西",35.2169483,137.0626863
"サークルK","信州喬木",35.520853,137.8755128
"サークルK","柵下町",35.0973588,136.9306418
"サークルK","雲出本郷",34.6666727,136.5229645
"サークルK","垂井東",35.3752092,136.5350709
"サークルK","上野",34.7248816,137.3866821
"サークルK","大脇",34.7271526,137.4558762
"サークルK","弁天島",34.690387,137.6008659
"サークルK","寺島",34.6994937,137.7370869
"サークルK","新城",34.898171,137.4947341
"サークルK","中条",34.7835572,137.7798547
"サークルK","磐田団地",34.7047795,137.8859915
"サークルK","焼津八楠",34.8798651,138.3092483
"サークルK","船渡",34.7221052,137.3471765
"サークルK","御前崎市役所前",34.6387987,138.1273025
"サークルK","葵",34.7683746,137.712953
"サークルK","清水月見町",35.0017581,138.4815284
"サークルK","豊島",34.6690168,137.2825323
"サークルK","三谷",34.8101202,137.2555271
"サークルK","清水堂林",35.0059486,138.4755487
"サークルK","浜岡佐倉",34.6316747,138.1403818
"サークルK","富士鮫島",35.1403046,138.6717452
"サークルK","浜名三ツ谷",34.7008621,137.5555882
"サークルK","小豆餅",34.7550433,137.7280303
"サークルK","富士神谷",35.1626144,138.7401995
"サークルK","敷地",34.6889548,137.805488
"サークルK","富士宮淀師",35.2423006,138.6096567
"サークルK","モール街",34.7041288,137.7305325
"サークルK","池下",34.7407613,137.4104824
"サークルK","中高丘",34.7610532,137.7015543
"サークルK","吉胡",34.6790595,137.2739516
"サークルK","富士石坂",35.1809334,138.6817615
"サークルK","三島壱町田",35.1342376,138.9194139
"サークルK","富士荒田島",35.157747,138.688793
"サークルK","宇布見",34.6989509,137.6439619
"サークルK","清水長崎",35.0165329,138.4453497
"サークルK","御前崎",34.603654,138.2157968
"サークルK","子安",34.7117375,137.7598597
"サークルK","赤羽根",34.6146822,137.2034714
"サークルK","富士水戸島",35.1446397,138.6470081
"サークルK","富士大渕",35.1970677,138.6808889
"サークルK","長篠",34.9245802,137.5585586
"サークルK","清水船越",35.0041856,138.4664905
"サークルK","神田",34.6866946,137.7272136
"サークルK","渥美保美",34.6199996,137.0867698
"サークルK","藤枝瀬古",34.8665433,138.236763
"サークルK","掛川杉谷",34.7683002,138.0315155
"サークルK","二番町",34.7319671,137.8588815
"サークルK","静岡有明",34.9686793,138.4042644
"サークルK","沼津中沢田",35.1219347,138.8532
"サークルK","東本郷",34.6976891,137.7664518
"サークルK","水竹",34.8352922,137.2364175
"サークルK","新富士駅南",35.1403344,138.662307
"サークルK","北高丘",34.7641531,137.7124222
"サークルK","遠州浜",34.6569545,137.7675726
"サークルK","静岡瀬名",35.0273124,138.4234321
"サークルK","西浦",34.7773813,137.178075
"サークルK","井伊谷",34.8341368,137.6663428
"サークルK","天竜山東",34.8748791,137.8208891
"サークルK","万野原バイパス",35.2529716,138.6164946
"サークルK","庵原由比",35.110078,138.5681162
"サークルK","三河大野",34.9521951,137.6072613
"サークルK","豊橋新栄",34.7668998,137.3677317
"サークルK","富士宮島",35.1276697,138.657497
"サークルK","東細谷",34.6849214,137.4718159
"サークルK","清水石川",35.0326454,138.4589629
"サークルK","田原浦",34.6958468,137.2770815
"サークルK","田原野田",34.6542251,137.210106
"サークルK","浜松富塚",34.7237992,137.7031559
"サークルK","富士宮新田",35.2467204,138.6243553
"サークルK","掛川細谷",34.7924014,137.9633701
"サークルK","駿東下土狩",35.1252742,138.8986991
"サークルK","富士宮穂波",35.2336263,138.5962162
"サークルK","清水三保",35.0079551,138.5200109
"サークルK","豊橋西部団地",34.7481848,137.3693325
"サークルK","清水宮代",35.0247027,138.4838662
"サークルK","長泉町北口",35.1275431,138.9068063
"サークルK","三河くろぜ",34.9929289,137.5592474
"サークルK","金谷東町",34.8274727,138.137809
"サークルK","静岡敷地",34.9503095,138.4164252
"サークルK","富士宮西小泉",35.222956,138.6278451
"サークルK","藤枝駅南通り",34.8431991,138.2552525
"サークルK","豊川大堀",34.8362349,137.4015757
"サークルK","豊橋本興寺",34.7479715,137.410718
"サークルK","田原西屋敷",34.6638979,137.2583146
"サークルK","浅羽松原",34.6887258,137.9188086
"サークルK","島田野田",34.8456276,138.1818795
"サークルK","伊豆修善寺",34.974322,138.935739
"サークルK","富士宮浅間",35.2178842,138.6099158
"サークルK","浜松豊",34.7821698,137.8074945
"サークルK","掛川本郷",34.8093505,137.9561739
"サークルK","富士宮朝霧",35.3855567,138.5730031
"サークルK","三島柳郷地",35.115281,138.9400931
"サークルK","裾野伊豆島田",35.1538572,138.9050862
"サークルK","島田川根町",34.9448683,138.0891776
"サークルK","焼津小川港",34.8482688,138.3240486
"サークルK","袋井延久",34.7613926,137.8964881
"サークルK","渥美小塩津",34.5925326,137.0925626
"サークルK","豊橋浜道",34.7197805,137.4094744
"サークルK","由比町屋原",35.1047174,138.5566064
"サークルK","長泉町上土狩",35.1428474,138.9047868
"サークルK","藤枝大東町",34.8257204,138.2763536
"サークルK","袋井山科",34.7687809,137.9016153
"サークルK","吉田インター",34.7924953,138.2404581
"サークルK","富士広見",35.1817195,138.6916027
"サークルK","裾野御宿",35.2031569,138.9040031
"サークルK","浜松西神田",34.6891958,137.7197733
"サークルK","豊橋平川",34.7615283,137.4220275
"サークルK","森町円田",34.8197556,137.9076924
"サークルK","袋井新池",34.7306152,137.914388
"サークルK","沼津片浜",35.1208673,138.8216027
"サークルK","浜松西本郷",34.6943404,137.7612684
"サークルK","磐田二之宮東",34.7122832,137.8589934
"サークルK","芝川町役場前",35.1992074,138.5604208
"サークルK","静岡昭府町",35.003703,138.3714375
"サークルK","浜松入野",34.7004067,137.6997882
"サークルK","掛川上内田",34.7411523,138.040867
"サークルK","掛川鳥居",34.7723931,137.9947794
"サークルK","榛原中川根町",35.0346996,138.0821381
"サークルK","沼津沼平",35.1111912,138.8733908
"サークルK","磐田西貝塚",34.7181549,137.8751918
"サークルK","松崎町松崎",34.7503372,138.7785763
"サークルK","静岡呉服町",34.9749752,138.3820379
"サークルK","静岡新間",34.9861068,138.3084355
"サークルK","浜松篠ヶ瀬",34.7253723,137.7757887
"サークルK","大東国包",34.6683365,138.0648784
"サークルK","蒲原本町",35.1187747,138.6037129
"サークルK","舘山寺温泉",34.7639264,137.6148083
"サークルK","富士依田橋東",35.1488232,138.7008034
"サークルK","富士宮東小泉",35.2132463,138.6417134
"サークルK","浜松古人見",34.7314493,137.6386299
"サークルK","賀茂宇久須",34.8492966,138.7773269
"サークルK","掛川長谷",34.7684156,137.9950546
"サークルK","焼津石津中町",34.8427244,138.3234549
"サークルK","浜松野口",34.713142,137.7375535
"サークルK","静岡足久保",35.0420898,138.3659252
"サークルK","静岡牛妻",35.0586271,138.370435
"サークルK","浜北中瀬",34.837009,137.8097218
"サークルK","豊橋石巻本町",34.8076987,137.4427126
"サークルK","豊橋東三ノ輪",34.7538629,137.4111177
"サークルK","竜洋豊岡",34.6727286,137.8096504
"サークルK","焼津惣右衛門",34.8180748,138.311251
"サークルK","牛川田ノ上",34.7764206,137.4150284
"サークルK","豊橋豊清",34.715746,137.4684587
"サークルK","長泉中土狩",35.1362372,138.9096867
"サークルK","大井川高新田",34.8013065,138.3053523
"サークルK","豊橋高師本郷",34.7150828,137.393221
"サークルK","田原六連",34.6509447,137.3399394
"サークルK","豊川柑子町",34.8057071,137.3979164
"サークルK","清水吉川",35.0179559,138.4553568
"サークルK","松崎町那賀",34.754296,138.7948788
"サークルK","裾野岩波",35.2173787,138.92059
"サークルK","湖西中",34.7163905,137.501295
"サークルK","藤枝立花",34.8720732,138.2672462
"サークルK","静岡紺屋町",34.9729645,138.3845378
"サークルK","浜北芝本",34.8243621,137.7981723
"サークルK","吉田下川原",34.7806155,138.2401476
"サークルK","下田西中",34.6890716,138.9427905
"サークルK","気賀南",34.7965655,137.649307
"サークルK","三ヶ日中",34.803929,137.5515338
"サークルK","裾野せぎ原",35.1600735,138.9037531
"サークルK","浜松大浜街道",34.69645,137.7495533
"サークルK","浜松天龍川町",34.718823,137.7752671
"サークルK","菊川駅東",34.7627849,138.0915718
"サークルK","浜松下石田",34.7411988,137.7823015
"サークルK","静岡手越原",34.9508385,138.3631406
"サークルK","静岡七間町",34.9726255,138.3801272
"サークルK","島田横井",34.8284792,138.1698843
"サークルK","御殿場永原",35.2852736,138.9278783
"サークルK","豊橋仲ノ町",34.7574426,137.4133454
"サークルK","磐田インター",34.7449467,137.857931
"サークルK","河津笹原",34.7505549,138.9923976
"サークルK","静岡福田ヶ谷",35.023359,138.3760362
"サークルK","清水永楽町",35.0244815,138.473619
"サークルK","浜松早出南",34.7250219,137.749402
"サークルK","相良女神",34.7041038,138.1859667
"サークルK","長泉鮎壺",35.135442,138.894488
"サークルK","藤枝堀之内",34.8743613,138.2251166
"サークルK","南伊豆下賀茂",34.6507883,138.8640128
"サークルK","御殿場ぐみ沢",35.3053603,138.920628
"サークルK","豊橋下条",34.7995492,137.4213178
"サークルK","豊橋東脇",34.754742,137.3651105
"サークルK","御殿場北久原",35.318679,138.9300516
"サークルK","豊川城下",34.8059479,137.3827957
"サークルK","浜松上島三丁目",34.7397863,137.7473434
"サークルK","藤枝上藪田",34.8899711,138.2560413
"サークルK","豊橋神野南",34.7401382,137.3441129
"サークルK","清水鳥坂",35.0190335,138.4384752
"サークルK","袋井愛野駅南",34.7505639,137.9617581
"サークルK","焼津田尻",34.8295118,138.3251883
"サークルK","浜松中田島",34.6644142,137.7399835
"サークルK","豊川三谷原",34.8180861,137.4133646
"サークルK","函南平井",35.1017059,138.9678724
"サークルK","豊橋小向",34.7667296,137.3582655
"サークルK","島田岸町",34.8437723,138.212616
"サークルK","豊橋西橋良",34.7517536,137.3805314
"サークルK","豊川中条",34.8131472,137.3911277
"サークルK","沼津小諏訪",35.1111297,138.8407905
"サークルK","御殿場兎島",35.2387283,138.9109208
"サークルK","豊田町弥藤太島",34.7248512,137.8227239
"サークルK","新城とよさか",34.8926962,137.474788
"サークルK","豊川谷川",34.8299347,137.4083255
"サークルK","三方原PA",34.7579982,137.7381094
"サークルK","西岩田",34.7515714,137.4222919
"サークルK","浜松白羽町",34.6779067,137.7326865
"サークルK","豊川寿通",34.8112171,137.3743291
"サークルK","豊橋曙",34.7262157,137.4012388
"サークルK","浜松庄和町",34.7455862,137.6032132
"サークルK","豊橋南栄",34.7344535,137.3848238
"サークルK","浜松西高丘",34.7587893,137.6920472
"サークルK","湖西鷲津",34.7117668,137.5478443
"サークルK","函南塚本",35.075783,138.9294268
"サークルK","富士本吉原",35.1627826,138.6921115
"サークルK","浜松インター南",34.7336017,137.7879344
"サークルK","静岡登呂六丁目",34.9545278,138.4050369
"サークルK","静岡千代田七丁目",35.0021337,138.4029429
"サークルK","新浜北小松",34.7931341,137.7781884
"サークルK","大東国安",34.6546259,138.0593715
"サークルK","静岡曲金六丁目",34.9803842,138.4118382
"サークルK","焼津小川",34.851279,138.2990785
"サークルK","藤枝小石川町",34.8569668,138.2647611
"サークルK","新城一鍬田",34.8798247,137.4849308
"サークルK","細江西気賀",34.8017227,137.6325721
"サークルK","小笠赤土",34.6904207,138.0954578
"サークルK","沼津上石田",35.1180497,138.8834147
"サークルK","蒲郡ふそう",34.8222495,137.2355482
"サークルK","浜松丸塚町",34.7284268,137.7631737
"サークルK","静岡江川通り",34.9736844,138.3849707
"サークルK","富士厚原",35.1859995,138.6603021
"サークルK","豊橋一里山",34.6976113,137.486725
"サークルK","豊橋緑ヶ丘",34.7778017,137.4322039
"サークルK","静岡鷹匠三丁目",34.9800668,138.3886261
"サークルK","豊橋大清水",34.7038082,137.3501361
"サークルK","豊川牛久保駅通",34.8191403,137.3764306
"サークルK","浜北新原本村",34.8142429,137.7789674
"サークルK","豊橋問屋町",34.7616607,137.3333208
"サークルK","浜松常盤町",34.7098532,137.7308402
"サークルK","袋井愛野駅北",34.7530056,137.9604271
"サークルK","藤枝横内",34.9007125,138.2855493
"サークルK","沼津西沢田",35.118721,138.8462207
"サークルK","掛川成滝",34.7780121,138.0290013
"サークルK","静岡おしか",34.9712484,138.4258234
"サークルK","藤枝青葉町",34.8424789,138.2366561
"サークルK","新函南柏谷",35.0878952,138.956985
"サークルK","袋井大野",34.6798101,137.942571
"サークルK","沼津北高島町",35.1130798,138.8616997
"サークルK","静岡沓谷五丁目",34.9969704,138.4096286
"サークルK","掛川かみ西郷",34.7972878,138.0124438
"サークルK","牧之原地頭方",34.6309626,138.1870879
"サークルK","蒲郡上本町",34.8330153,137.2293202
"サークルK","富士宮外神",35.2563832,138.6153616
"サークルK","御殿場新橋",35.2923619,138.9349274
"サークルK","浜松有玉西",34.7489632,137.7378018
"サークルK","小坂井町才ノ木",34.7955317,137.3648966
"サークルK","豊川馬場",34.8210056,137.4047872
"サークルK","蒲郡大塚",34.8128844,137.2841086
"サークルK","浜松インター北",34.749892,137.7919053
"サークルK","湖西梅田",34.7288779,137.4870846
"サークルK","豊橋東松山",34.7573012,137.3900443
"サークルK","浜松和地",34.7616574,137.6606106
"サークルK","浜松市野",34.7512036,137.7764595
"サークルK","沼津西間門",35.108492,138.8420816
"サークルK","藤枝上青島",34.8444865,138.2251459
"サークルK","豊川宿",34.8083452,137.3582446
"サークルK","富士船津",35.1496693,138.7678328
"サークルK","清水折戸",34.9852503,138.50815
"サークルK","浜松和田西",34.7171811,137.7695446
"サークルK","藤枝与左衛門",34.8350102,138.266337
"サークルK","富士まつもと",35.1686342,138.6485959
"サークルK","浜松篠原",34.6856048,137.6709543
"サークルK","浜松可美公園前",34.687629,137.6993218
"サークルK","豊橋天伯町",34.6984339,137.414981
"サークルK","田原赤石",34.664508,137.2676827
"サークルK","田原古田町",34.6265812,137.1069068
"サークルK","豊川八幡町",34.8380195,137.3313695
"サークルK","浜松西浅田北",34.691935,137.7253055
"サークルK","清水楠新田",35.0082348,138.4450551
"サークルK","磐田竜洋中島",34.706113,137.8096968
"サークルK","富士宮大岩",35.2439858,138.6283921
"サークルK","豊橋賀茂町",34.8387693,137.4360467
"サークルK","牧之原波津",34.684256,138.193367
"サークルK","御殿場駒門",35.2549086,138.9129119
"サークルK","蒲原バイパス",35.1177402,138.6230293
"サークルK","焼津港",34.8674477,138.3247256
"サークルK","蒲郡諏訪東",34.8189353,137.2565656
"サークルK","静岡富士見台",34.963531,138.4124639
"サークルK","豊橋西幸町",34.7302465,137.4122077
"サークルK","新城名号",34.9974032,137.6593779
"サークルK","浜松北初生",34.7684797,137.7170686
"サークルK","豊橋西口町",34.7430172,137.4173267
"サークルK","静岡東町",34.9765943,138.3965576
"サークルK","三ヶ日インター",34.7916949,137.5830797
"サークルK","三島松本",35.0878445,138.9187641
"サークルK","御前崎池新田",34.6515472,138.1186917
"サークルK","浜松下飯田",34.7017449,137.7760108
"サークルK","大井川利右衛門",34.7870377,138.2906542
"サークルK","掛川横須賀",34.6816066,137.9791929
"サークルK","豊橋中浜",34.7413836,137.3728525
"サークルK","豊橋中原町",34.7240822,137.4763207
"サークルK","豊川代田町",34.8266503,137.3629094
"サークルK","小坂井町",34.8017979,137.3616166
"サークルK","磐田岩井原",34.7500214,137.8730415
"サークルK","島田旭三丁目",34.8295915,138.1939342
"サークルK","藤枝忠兵衛",34.8370916,138.2463555
"サークルK","静岡おおや",34.9495829,138.4365446
"サークルK","浜松有玉北町",34.7695893,137.7574992
"サークルK","蒲郡形原",34.8072953,137.1871349
"サークルK","浜松湖東高校前",34.7339314,137.659809
"サークルK","清水にしくぼ",35.0382232,138.4828606
"サークルK","袋井市役所前",34.7507952,137.9257861
"サークルK","浜松新橋南",34.679901,137.7095653
"サークルK","牧之原西萩間",34.726506,138.1633235
"サークルK","浜松中田町",34.735284,137.7611865
"サークルK","浜松大平台三丁目",34.7120091,137.6813882
"サークルK","浜松小池町",34.7426722,137.7569005
"サークルK","清水清開南",34.9933202,138.4947037
"サークルK","豊橋多米西町",34.7623725,137.4403569
"サークルK","菊川東横地",34.7297685,138.0976858
"サークルK","静岡向敷地",34.9653428,138.3560775
"サークルK","吉田かたおか",34.7794009,138.2553564
"サークルK","静岡安倍口新田",35.0210789,138.3604026
"サークルK","豊橋牟呂",34.7468837,137.3531329
"サークルK","富士富士川",35.1705115,138.6185753
"サークルK","静岡下島南",34.9489855,138.4099948
"サークルK","焼津石津南",34.8400065,138.3173585
"サークルK","豊川御油町",34.8429029,137.322713
"サークルK","島田ひがし町",34.8355552,138.2147592
"サークルK","浜松城北二丁目",34.7234476,137.7192205
"サークルK","浜松細江三和",34.8154331,137.6849721
"サークルK","清水富士見町",35.0102933,138.4889394
"サークルK","沼津おおの",35.1374642,138.8054173
"サークルK","浜北こばやし",34.8097346,137.7903337
"サークルK","磐田大久保",34.7707867,137.8474557
"サークルK","清水東大曲町",35.0200791,138.476049
"サークルK","磐田富士見",34.734469,137.8674207
"サークルK","袋井かわい",34.7467294,137.9112775
"サークルK","浜松寺脇町",34.6855442,137.7507417
"サークルK","御前崎新川橋西",34.647324,138.1371063
"サークルK","藤枝青南町",34.8371846,138.234014
"サークルK","焼津大覚寺",34.8751884,138.2962626
"サークルK","磐田新貝",34.7213098,137.8863271
"サークルK","静岡丸子六丁目",34.9483265,138.3503678
"サークルK","御殿場古沢",35.3367812,138.9357043
"サークルK","清水興津駅前",35.0518455,138.5231496
"サークルK","伊豆熱川",34.8151804,139.071487
"サークルK","湖西坊瀬",34.7043561,137.518989
"サークルK","豊橋花田町",34.7610114,137.3668081
"サークルK","袋井栄町",34.7425,137.9208409
"サークルK","静岡大岩二丁目",34.9955161,138.3828129
"サークルK","河津見高",34.7622951,139.0208996
"サークルK","富士山静岡空港北",34.8093296,138.135571
"サークルK","浜松旭町",34.7053097,137.7323413
"サークルK","豊橋三本木",34.7285384,137.3950442
"サークルK","大井川富士見橋",34.802478,138.2641026
"サークルK","静岡曲金南",34.9795073,138.4126242
"サークルK","伊東川奈",34.9471551,139.118509
"サークルK","清水インター",35.040134,138.4825936
"サークルK","牧之原細江",34.7457292,138.2377434
"サークルK","牧之原静波",34.736343,138.2234671
"サークルK","島田神座",34.8642706,138.1266292
"サークルK","静岡千代",34.9849457,138.3526509
"サークルK","浜松きたじま",34.7299069,137.7797782
"サークルK","静岡北安東",35.0022205,138.3910769
"サークルK","函南丹那",35.0996099,139.0095621
"サークルK","湖西中之郷",34.7061902,137.5478187
"サークルK","清水草薙駅前",35.0028253,138.4427096
"サークルK","豊橋瓜郷町",34.7858599,137.3739773
"サークルK","藤枝岡部町",34.9008713,138.2967195
"サークルK","清水興津中町",35.0617414,138.5248801
"サークルK","静岡馬渕三丁目",34.9640715,138.386888
"サークルK","浜松天神町",34.7094146,137.7495187
"サークルK","豊橋中郷",34.7535044,137.3795384
"サークルK","浜松東三方町",34.7795109,137.7366245
"サークルK","豊川四ツ谷町",34.8171834,137.3684733
"サークルK","新城東沖野",34.9037246,137.5094447
"サークルK","富士てんま",35.1989558,138.6392622
"サークルK","浜松葵",34.7679715,137.7044047
"サークルK","浜松泉",34.7481751,137.7205913
"サークルK","浜松桜台",34.7714845,137.6684575
"サークルK","浜松高林四丁目",34.7293252,137.7329231
"サークルK","浜松根洗町",34.7985011,137.696114
"サークルK","富士八幡町",35.1596771,138.6501646
"サークルK","豊橋富士見",34.6858864,137.3627129
"サークルK","清水桜橋町",35.0152567,138.4766879
"サークルK","豊川赤坂町",34.8599358,137.3081234
"サークルK","藤枝大洲四丁目",34.8272685,138.2576178
"サークルK","焼津中根新田",34.82807,138.2850866
"サークルK","蒲郡シーサイド",34.8125149,137.2925495
"サークルK","豊橋前芝",34.7840145,137.3403572
"サークルK","沼津沼北町",35.1117479,138.8554883
"サークルK","沼津おおひら",35.073162,138.9102105
"サークルK","豊橋柳生橋駅",34.7544215,137.3885636
"サークルK","静岡二番町",34.975594,138.3718527
"サークルK","掛川なか",34.6853134,138.0657111
"サークルK","清水袖師町",35.0339579,138.4957767
"サークルK","藤枝岡部インター",34.9086872,138.2632278
"サークルK","きくがわ加茂",34.7498312,138.0807191
"サークルK","静岡丸子東海道",34.9413498,138.3243732
"サークルK","藤枝宮原",34.8990243,138.2028116
"サークルK","掛川成滝東",34.780217,138.0366606
"サークルK","裾野須山",35.261177,138.8625678
"サークルK","静岡羽鳥三丁目",34.9823576,138.3358924
"サークルK","シーガルドーム前",34.8627925,138.2828163
"サークルK","浜松三ヶ日北",34.8109363,137.5506185
"サークルK","浜北貴布祢野中",34.7992446,137.7824648
"サークルK","豊川伊奈町",34.8070562,137.354505
"サークルK","浜松四ツ池公園前",34.7426409,137.739258
"サークルK","豊橋前田二丁目",34.7615449,137.3985534
"サークルK","山中",36.2466431,136.3728382
"サークルK","芦原",36.2290979,136.1940039
"サークルK","古府南",36.5627024,136.6084121
"サークルK","羽広",36.7440427,136.9896801
"サークルK","二の宮四丁目",36.0860105,136.2152277
"サークルK","丹生朝日",35.97346,136.1252794
"サークルK","鶴来",36.4676735,136.602381
"サークルK","能登高浜",36.9996807,136.7779859
"サークルK","小松串町",36.3705447,136.4209445
"サークルK","松任新田町",36.5349577,136.5711165
"サークルK","八日市三丁目",36.547443,136.6031632
"サークルK","石川美川町",36.4939607,136.4900251
"サークルK","東鯖江",35.9431945,136.1938831
"サークルK","小松平面",36.4162297,136.4714302
"サークルK","本郷東部",36.7257195,137.1512875
"サークルK","武生平出",35.9091535,136.1579986
"サークルK","武生向陽",35.8722624,136.1554815
"サークルK","押野六丁目",36.5469713,136.6175121
"サークルK","富山北代",36.7158391,137.1824834
"サークルK","加賀岡町",36.313499,136.3175557
"サークルK","高岡末広",36.7421763,137.0119703
"サークルK","小松八幡",36.4010817,136.4938291
"サークルK","七尾津向",37.0563917,136.9540687
"サークルK","金沢元菊",36.5706882,136.6421089
"サークルK","七尾和倉",37.085949,136.9252807
"サークルK","高岡波岡",36.7577102,136.9883386
"サークルK","東滑川",36.7796756,137.3727666
"サークルK","手取あおう",36.4580979,136.5080723
"サークルK","勝山旭町",36.0528993,136.5128325
"サークルK","松任福留",36.4925115,136.5268221
"サークルK","金沢京町",36.583629,136.6573851
"サークルK","金沢中央市場",36.5883441,136.6325089
"サークルK","氷見島尾",36.8261342,137.0076228
"サークルK","鯖江当田",35.9483683,136.1614885
"サークルK","福野二日町",36.5946714,136.916779
"サークルK","金沢神宮寺",36.586304,136.668484
"サークルK","金沢土清水",36.5295354,136.6898739
"サークルK","穴水川島",37.2310782,136.9097563
"サークルK","大山上滝",36.6091265,137.2995306
"サークルK","金沢西泉",36.551486,136.6299138
"サークルK","松任成町",36.5306189,136.5538211
"サークルK","片山津インター",36.3686018,136.3571499
"サークルK","福岡赤丸",36.7341208,136.9352051
"サークルK","粟津温泉",36.3357459,136.446944
"サークルK","富山上袋",36.6583808,137.2140464
"サークルK","小矢部野寺",36.6615937,136.8880033
"サークルK","輪島塚田",37.3946968,136.9169172
"サークルK","魚津北鬼江",36.82863,137.4104333
"サークルK","小矢部インター",36.6318883,136.8511528
"サークルK","金沢上安原",36.5584616,136.5922976
"サークルK","加賀別所",36.2726071,136.3590792
"サークルK","津幡潟端",36.6550584,136.7138991
"サークルK","福井北四ツ居",36.0677741,136.2478538
"サークルK","能都宇出津",37.3105648,137.146022
"サークルK","津幡中須加",36.6715958,136.7259973
"サークルK","福井光陽",36.0668593,136.1972661
"サークルK","七尾市役所前",37.0420464,136.9679542
"サークルK","金沢駅西口",36.5815731,136.6483159
"サークルK","小矢部岡",36.6948765,136.9049784
"サークルK","今浜インター",36.8443391,136.766286
"サークルK","福井末広",35.9899566,136.2009663
"サークルK","能登門前",37.2881195,136.7626659
"サークルK","富山新屋",36.7270131,137.2522401
"サークルK","南条",35.8307955,136.19668
"サークルK","珠洲中央",37.4345565,137.258282
"サークルK","金沢みなと",36.6088914,136.6053182
"サークルK","能登柳田",37.3511407,137.1014429
"サークルK","富山元町",36.6887388,137.2280718
"サークルK","福光荒木",36.5542251,136.8835786
"サークルK","川北役場前",36.4681644,136.5434219
"サークルK","八尾新田",36.6062209,137.1319526
"サークルK","福井織田町",35.9611392,136.0591514
"サークルK","富山宇奈月",36.8696775,137.5181114
"サークルK","金沢末町",36.5155839,136.6907074
"サークルK","富山石動",36.674256,136.8666935
"サークルK","福井文京六丁目",36.0746805,136.1975687
"サークルK","入善くぬぎ山",36.9406499,137.5159193
"サークルK","伏木古府",36.7905528,137.049723
"サークルK","富山堀",36.6570862,137.2291922
"サークルK","富山南",36.6709934,137.2106761
"サークルK","高岡問屋センター",36.7294748,137.022695
"サークルK","富山稲荷町",36.6946242,137.2309233
"サークルK","金沢増泉",36.5582605,136.6432594
"サークルK","福井新保町",36.0854722,136.2511637
"サークルK","春江安沢",36.1374265,136.1840669
"サークルK","清水志津が丘",36.0172262,136.1190619
"サークルK","小松符津",36.3560854,136.4280366
"サークルK","丸岡磯部島",36.1155555,136.2763493
"サークルK","輪島きらめき",37.3849586,136.9027888
"サークルK","高岡能町",36.7736656,137.0486848
"サークルK","武生西尾町",35.8891676,136.2130839
"サークルK","富山鍋田",36.7154362,137.2465411
"サークルK","入善下上野",36.9373028,137.4924214
"サークルK","岩瀬天神町",36.7610231,137.2329341
"サークルK","鹿島鳥屋",36.9861452,136.8976686
"サークルK","魚津シーサイド",36.8219384,137.3949378
"サークルK","富山針原",36.7328788,137.2718492
"サークルK","三国東尋坊",36.228497,136.1395944
"サークルK","福井みのり",36.0519251,136.2085398
"サークルK","金沢彦三",36.5737491,136.6572825
"サークルK","小松義仲",36.4160338,136.4175017
"サークルK","高岡四屋",36.7599302,137.0042951
"サークルK","野々市押野",36.5425187,136.6166124
"サークルK","富山千歳町",36.6973207,137.2177563
"サークルK","金沢富樫",36.5394476,136.6478989
"サークルK","羽咋四柳",36.9319813,136.8576744
"サークルK","敦賀中央町二丁目",35.644224,136.0561083
"サークルK","砺波中野",36.6155783,136.9822566
"サークルK","敦賀新松島",35.6461328,136.0538504
"サークルK","野々市堀内",36.5317996,136.6000142
"サークルK","敦賀山泉",35.6229855,136.0660064
"サークルK","氷見中央",36.8585803,136.9835673
"サークルK","福井高柳",36.0924844,136.243896
"サークルK","金沢新神田",36.5638407,136.6291993
"サークルK","野々市菅原",36.5261704,136.6148133
"サークルK","マピス金沢松島",36.5606056,136.6043575
"サークルK","石川県庁前",36.5959601,136.6239653
"サークルK","金沢木材団地",36.6384481,136.6525859
"サークルK","敦賀木崎",35.6374276,136.0484592
"サークルK","射水大島",36.7360279,137.0643723
"サークルK","金沢疋田",36.6034912,136.6734048
"サークルK","新加賀インター",36.2897402,136.2963506
"サークルK","福岡大滝西",36.7035568,136.9203797
"サークルK","松任八ツ矢",36.5255617,136.569639
"サークルK","富山向新庄",36.7032459,137.2641372
"サークルK","金沢上荒屋",36.5486597,136.592914
"サークルK","武生家久",35.9310682,136.1628612
"サークルK","富山上市中央",36.6995949,137.3615823
"サークルK","金沢大桑",36.5383622,136.6744047
"サークルK","高岡金屋町",36.7517221,137.0046595
"サークルK","武生国高",35.9118398,136.1914267
"サークルK","能美中町",36.4515256,136.4520632
"サークルK","七尾飯川",37.0058358,136.9380783
"サークルK","高岡緑の丘公園前",36.7319665,137.0199091
"サークルK","金沢専光寺町",36.5858135,136.5817133
"サークルK","高岡市役所前",36.7544812,137.0275605
"サークルK","輪島中段",37.3872442,136.8917816
"サークルK","能登空港インター",37.2863056,136.9279663
"サークルK","高岡戸出",36.6852396,136.9685266
"サークルK","小松城南",36.4072601,136.4372335
"サークルK","金沢北安江三丁目",36.5857427,136.6482387
"サークルK","七尾能登島",37.1241211,136.9953261
"サークルK","福井新木田",36.0434362,136.2199573
"サークルK","能登松波",37.351673,137.2365706
"サークルK","小松今江",36.3828128,136.4414283
"サークルK","珠洲宝立町",37.4020516,137.2337965
"サークルK","金沢畝田東",36.5991236,136.6142999
"サークルK","小松園町",36.4044808,136.4643064
"サークルK","鯖江丸山町",35.9779995,136.1821604
"サークルK","金沢大学",36.5507584,136.7048626
"サークルK","富山中央市場",36.6659268,137.2062387
"サークルK","羽咋杉野屋",36.8884892,136.8161729
"サークルK","富山下坂倉",36.6644773,137.167343
"サークルK","小松日の出",36.4006591,136.4578741
"サークルK","砺波苗加",36.6218459,136.9412557
"サークルK","富山大久保",36.6046393,137.2031958
"サークルK","金沢二万堂",36.5446278,136.6350967
"サークルK","射水鷲塚",36.7185207,137.1225982
"サークルK","富山中川原",36.6760464,137.245264
"サークルK","金沢粟崎",36.6246221,136.623556
"サークルK","七尾中島町",37.1138136,136.8564259
"サークルK","高岡野村東",36.7440766,137.0404429
"サークルK","羽咋釜屋町",36.9061086,136.7769203
"サークルK","志賀町富来",37.1452481,136.7236757
"サークルK","あわら大溝",36.2091475,136.2203606
"サークルK","富山八尾町",36.5894379,137.1443664
"サークルK","高岡大坪町",36.7595145,137.018069
"サークルK","新小松インター",36.4207216,136.4330972
"サークルK","かほくななくぼ",36.7249438,136.7085863
"サークルK","滑川つぼかわ",36.7753566,137.3496638
"サークルK","金沢稚日野",36.5774357,136.5975023
"サークルK","射水大門",36.7336918,137.0478357
"サークルK","敦賀結城町",35.6535112,136.065774
"サークルK","能美大成町",36.4485822,136.4672671
"サークルK","珠洲飯田",37.441166,137.2693798
"サークルK","滑川上小泉",36.7555167,137.3466909
"サークルK","敦賀野神",35.6344751,136.0563177
"サークルK","白山相木",36.5283894,136.5658982
"サークルK","鯖江宮前二丁目",35.9353532,136.1895528
"サークルK","鹿島能登部",36.9646691,136.8729226
"サークルK","富山黒崎",36.6473219,137.2090313
"サークルK","加賀箱宮町",36.3281191,136.4121702
"サークルK","福井若杉浜三丁目",36.0602088,136.1857193
"サークルK","大野友江",35.9964221,136.4995942
"サークルK","金沢高尾南",36.5188285,136.6286904
"サークルK","小松千木野",36.3823474,136.4730347
"サークルK","福井円山",36.0701597,136.2432601
"サークルK","七尾千野",37.0177778,136.9540594
"サークルK","羽咋千里浜",36.8855798,136.7764193
"サークルK","高岡みずほ町",36.751905,136.9969241
"サークルK","射水太閤山",36.6967767,137.101489
"サークルK","魚津本江西",36.8151963,137.4030695
"サークルK","加賀長谷田",36.2667897,136.3582555
"サークルK","金沢諸江通り",36.582877,136.6480979
"サークルK","野々市野代",36.5432974,136.6030644
"サークルK","鹿島バイパス",36.9686292,136.9036949
"サークルK","能美徳久",36.451009,136.5283309
"サークルK","能美寺井町",36.4344191,136.4917757
"サークルK","富山堀川町",36.6603147,137.2197238
"サークルK","福井石盛町",36.1158507,136.2354847
"サークルK","小松矢田野",36.3485871,136.4241613
"サークルK","金沢寺町",36.5486948,136.6573377
"サークルK","かほくバイパス",36.7456619,136.7243421
"サークルK","高岡中曽根",36.7698744,137.0716261
"サークルK","越前本町",35.8980098,136.1660185
"サークルK","能美道林",36.4421225,136.4445113
"サークルK","小松今江五丁目",36.3771694,136.4420885
"サークルK","金沢新保本",36.5555602,136.6064856
"サークルK","金沢天神町",36.5585781,136.6788244
"サークルK","富山大町",36.6678639,137.2228432
"サークルK","氷見市民病院前",36.8575551,136.9662478
"サークルK","高岡能町南",36.769215,137.0478041
"サークルK","七尾小島町",37.0499972,136.9564644
"サークルK","金沢御影",36.5635359,136.6407014
"サークルK","黒部生地漁港前",36.8937395,137.4192854
"サークルK","志賀町土田",37.0577063,136.8251999
"サークルK","本津幡駅前",36.675472,136.7310976
"サークルK","高岡大清水",36.6856141,136.9969003
"サークルK","富山豊田本町",36.7285827,137.2370503
"サークルK","敦賀清水町",35.647491,136.0741526
"サークルK","南砺井波",36.5694677,136.966989
"サークルK","あわら笹岡",36.2144008,136.272578
"サークルK","福井宝永三丁目",36.0688526,136.2253877
"サークルK","砺波市役所前",36.6478545,136.9611359
"サークルK","富山山室中部",36.675869,137.2498381
"サークルK","小松沖町",36.3956772,136.4620645
"サークルK","黒部前沢",36.8654059,137.4492897
"サークルK","越前押田",35.9079292,136.190084
"サークルK","金沢元町",36.5788127,136.6641197
"サークルK","金沢高畠一丁目",36.5711876,136.6120454
"サークルK","野々市新庄四丁目",36.5057896,136.6122504
"サークルK","富山茶屋町",36.7094026,137.1740544
"サークルK","輪島中央",37.390746,136.9015346
"サークルK","小矢部埴生",36.6659757,136.8562298
"サークルK","高岡卸売市場前",36.7283556,137.0044046
"サークルK","金沢南町CP",36.5657676,136.6540429
"サークルK","能美五間堂",36.4430891,136.4876706
"サークルK","七尾矢田新町",37.0463192,136.9819408
"サークルK","鯖江大倉町",35.9637175,136.1578349
"サークルK","野々市郷町",36.5328314,136.5867733
"サークルK","田上かわふねがわ",37.6821175,139.059257
"サークルK","新潟物見山",37.9415314,139.0974309
"サークルK","五泉あこみ",37.735949,139.1905376
"サークルK","燕大曲砂押",37.645171,138.9175785
"サークルK","新潟鐙西",37.901246,139.057947
"サークルK","長岡高見",37.4968809,138.861101
"サークルK","巻インター",37.7475803,138.9358643
"サークルK","新潟坂井東",37.8727725,138.9678448
"サークルK","上大川前通",37.9174941,139.0464473
"サークルK","新潟牡丹山",37.9168149,139.0894437
"サークルK","新潟河渡本町",37.9337934,139.1063415
"サークルK","新津車場",37.8329631,139.1023105
"サークルK","五泉旭町",37.7451569,139.181652
"サークルK","吉田町本所",37.6970997,138.8765545
"サークルK","新潟中野山",37.900103,139.1040373
"サークルK","新潟鐙三丁目",37.9056568,139.0703818
"サークルK","新発田中曽根",37.9595064,139.3190947
"サークルK","新潟立仏",37.8663259,139.0088297
"サークルK","亀田旭三丁目",37.8757476,139.1030335
"サークルK","燕中川",37.6775342,138.954198
"サークルK","新潟上木戸",37.9201398,139.1009536
"サークルK","新潟内野山手",37.8614072,138.935948
"サークルK","新潟競馬場インター",37.9387333,139.1863427
"サークルK","三条鶴田",37.6422726,138.9925644
"サークルK","長岡古正寺",37.4591982,138.821509
"サークルK","新潟中木戸",37.9283189,139.0989844
"サークルK","新潟錦町",37.9384796,139.0879848
"サークルK","新発田豊町",37.9452333,139.3399606
"サークルK","新津山谷南",37.7916647,139.1133825
"サークルK","新潟五十嵐",37.8678564,138.9336559
"サークルK","新潟幸西",37.909737,139.0483754
"サークルK","見附田井町",37.4958681,138.9275765
"サークルK","新潟坂井輪",37.8722727,138.9750833
"サークルK","横越うぐいす団地",37.8736623,139.133442
"サークルK","新潟紫竹山",37.8978636,139.0672024
"サークルK","新潟天野",37.8549345,139.0292486
"サークルK","新潟逢谷内",37.920809,139.1161773
"サークルK","見附元町",37.5328781,138.9241781
"サークルK","長岡新産四丁目",37.4339723,138.788038
"サークルK","阿賀野南安野",37.8356838,139.2123452
"サークルK","豊栄太田",37.9229636,139.2237103
"サークルK","三条塚野目二丁目",37.6347542,138.9781489
"サークルK","長岡蔵王一丁目",37.46597,138.854484
"サークルK","新津さつき野",37.8105548,139.1162494
"サークルK","巻町桔梗が丘",37.7670573,138.8815039
"サークルK","弥彦温泉前",37.7005226,138.8337719
"サークルK","亀田船戸山",37.8671815,139.101742
"サークルK","新潟みずき野",37.8168914,138.9056856
"サークルK","長岡宮栄",37.4209325,138.8357236
"サークルK","新発田高校前",37.9395358,139.3347693
"サークルK","新潟上新栄町",37.8862771,138.9715219
"サークルK","新潟天神尾",37.9090231,139.054283
"サークルK","新潟西白根",37.7547498,139.0056801
"サークルK","新潟嘉瀬",37.8415338,139.0772062
"サークルK","阿賀野保田",37.7753794,139.2253779
"サークルK","新潟長者町",37.9349318,139.0765439
"サークルK","新潟大学南",37.8662478,138.9443581
"サークルK","三条新保",37.6159249,138.9621491
"サークルK","新潟新通",37.8587089,138.9588132
"サークルK","長岡川崎",37.4500659,138.8658758
"サークルK","新潟鳥原",37.8500806,139.0077416
"サークルK","新潟青山",37.8974205,139.0052346
"サークルK","五十嵐中島",37.8510081,138.9258023
"サークルK","加茂下条",37.6517534,139.0370163
"サークルK","長岡福道",37.4749263,138.8120341
"サークルK","新潟大淵",37.8948183,139.145754
"サークルK","新潟すみれ野",37.918546,139.1605767
"サークルK","新潟十番町",37.9258633,139.0493496
"サークルK","燕小高",37.6532606,138.9459808
"サークルK","長岡弓町",37.4418626,138.8533712
"サークルK","豊栄かぶとやま",37.927683,139.2195834
"サークルK","亀田大月",37.8830048,139.1020682
"サークルK","見附新幸町",37.5408817,138.8928173
"サークルK","長岡宝地",37.4510186,138.7966915
"サークルK","長岡南町",37.4407317,138.8493926
"サークルK","長岡南七日町",37.4414156,138.7941781
"サークルK","三条中新",37.6139646,138.9936656
"サークルK","新潟亀田向陽",37.8760367,139.1122357
"サークルK","長岡下々条",37.4791898,138.8627837
"サークルK","新潟関屋本村町",37.9121132,139.0199157
"サークルK","新発田しんえい町",37.9542256,139.3000285
"サークルK","新潟堀之内南",37.900466,139.0508427
"サークルK","白根文京町",37.7610024,139.0214785
"サークルK","新発田東新町",37.9509858,139.3492106
"サークルK","新潟東大通",37.9139117,139.0602803
"サークルK","新潟県立大学前",37.922411,139.1254115
"サークルK","新発田住吉",37.9460457,139.3139617
"サークルK","長岡蓮潟",37.471089,138.8254672
"サークルK","燕井土巻",37.6491769,138.9357018
"サークルK","五泉木越",37.7228562,139.1769714
"サークルK","新潟矢代田",37.7520447,139.0987745
"サークルK","聖籠次第浜",38.0073504,139.2720084
"サークルK","新潟巻南",37.752636,138.8914437
"サークルK","長岡中沢町",37.4456675,138.8686307
"サークルK","つばめ吉田東栄町",37.6826043,138.87916
"サークルK","新潟弥生",37.9061287,139.0134765
"サークルK","新発田富塚町",37.9505989,139.296308
"サークルK","長岡曙",37.42861,138.850456
"サークルK","柳都大橋南",37.9222163,139.0616163
"サークルK","新潟中之口",37.711897,138.983142
"サークルK","五泉本町",37.7424851,139.1754816
"サークルK","長岡新産業センター",37.4396628,138.7940922
"サークルK","新潟第一ホテル",37.9140438,139.06318
"サークルK","ミニ名古屋久屋大通",35.1734053,136.9081902
"サークルK","ミニ名古屋丸の内",35.1731071,136.898466
"サークルK","ミニ名古屋名城久屋",35.1740379,136.9082309
"サークルK","ミニ名古屋桜山",35.1400973,136.9333106
"サークルK","ミニ名古屋本山",35.1638935,136.9634909
"サークルK","ミニ名古屋今池",35.1689392,136.936981
"サークルK","ミニ地下鉄三宮東",34.6942986,135.1944116
"サークルK","ミニ地下鉄新神戸",34.7054933,135.1959258
"サークルK","ミニ名古屋伏見中央",35.1694955,136.8972753
"サークルK","ミニ名古屋上前津",35.1570194,136.9067595
"サークルK","ミニ名古屋中村公園",35.1680434,136.8552253
"サークルK","ミニ名古屋高畑",35.1398,136.8536478
"サークルK","ミニ名古屋御器所",35.1495263,136.9336642
"サークルK","ミニ稲沢",35.2535914,136.7705725
"サークルK","ミニ名古屋黒川",35.1971738,136.9098039
"サークルK","ミニ名古屋池下",35.1679225,136.9458533
"サークルK","ミニ名古屋鶴舞",35.1562712,136.9157653
"サークルK","ミニ地下鉄妙法寺",34.6750252,135.1100585
"サークルK","ミニ国際センター",35.172655,136.8903237
"サークルK","ミニ名古屋市役所",35.1816004,136.9070619
"サークルK","ミニ名古屋市役所西",35.1810824,136.9048221
"サークルK","ミニエアポートW",35.2465237,136.9249284
"サークルK","伊那上の原",35.8436095,137.9890386
"サークルK","春田三丁目",35.14145,136.8140495
"サークルK","八百津",35.4779138,137.1439736
"サークルK","清洲西市場",35.2198359,136.8306445
"サークルK","鳥羽中央",34.482882,136.8414075
"サークルK","岐南平島",35.3840709,136.8038501
"サークルK","庄内通",35.2051586,136.8913291
"サークルK","松阪大石",34.4850909,136.4500209
"サークルK","大王畔名",34.2967525,136.8775831
"サークルK","郡上小野",35.7587338,136.9740408
"サークルK","伊自良",35.5161886,136.7370106
"サークルK","岡崎岡町",34.9301796,137.2117562
"サークルK","豊田志賀",35.0662008,137.1993009
"サークルK","錦二丁目",35.1704094,136.899552
"サークルK","鵜沼大伊木",35.3880773,136.9090912
"サークルK","当知二丁目",35.1076683,136.8511589
"サークルK","飯田名古熊",35.4987266,137.8304986
"サークルK","柳橋",35.1678925,136.8906529
"サークルK","岡崎朝日町",34.9517427,137.1791579
"サークルK","松阪中央",34.5803163,136.5388092
"サークルK","東岡崎駅南口",34.9516155,137.166118
"サークルK","日進駅",35.1184206,137.048742
"サークルK","山王三丁目",35.1523412,136.8892537
"サークルK","白山家城",34.621622,136.3175256
"サークルK","尾西開明",35.3193801,136.7600758
"サークルK","豊田乙部ケ丘",35.1341065,137.1389228
"サークルK","伊勢河崎",34.4961173,136.7147264
"サークルK","岩滑中町",34.907454,136.924851
"サークルK","塩尻駅北",36.1168406,137.9498792
"サークルK","法華西町",35.1305907,136.8445364
"サークルK","飯田丸山",35.5215209,137.8150488
"サークルK","伊那ごんべい",35.8551841,137.9264352
"サークルK","岡谷塚間町",36.0634841,138.0528731
"サークルK","豊田上原",35.1084867,137.1649798
"サークルK","豊田百々町",35.1046577,137.2000301
"サークルK","栄三丁目",35.1628763,136.903741
"サークルK","栄五丁目",35.1650012,136.9129402
"サークルK","春日井中央台",35.2859078,137.0573336
"サークルK","諸ノ木",35.0798819,137.0020477
"サークルK","豊田平芝",35.0973718,137.1606117
"サークルK","糸貫早野",35.4523861,136.6581611
"サークルK","山口町",35.1842884,136.927749
"サークルK","羽島駅南",35.3106877,136.6840715
"サークルK","春日井樋田",35.2677402,137.0249261
"サークルK","知立長篠",34.9983053,137.0387674
"サークルK","東紀伊長島",34.2209904,136.3517352
"サークルK","嬉野下之庄",34.6204106,136.4620137
"サークルK","四日市赤水",35.0083739,136.5609876
"サークルK","坂本中町",35.4668822,137.4446051
"サークルK","白鳥バイパス",35.8824325,136.854206
"サークルK","玉城野篠",34.4850996,136.6076078
"サークルK","西尾戸ケ崎",34.8782736,137.0639098
"サークルK","久居井戸山",34.6712086,136.4850094
"サークルK","豊田野口町",35.1298312,137.2674423
"サークルK","松阪高校前",34.5612983,136.5368992
"サークルK","西大高",35.06571,136.9184553
"サークルK","郡上中津屋",35.8493084,136.8782305
"サークルK","加茂中富",35.4416686,137.026129
"サークルK","郡上大和",35.8112989,136.9001415
"サークルK","小俣湯田",34.5098448,136.6554107
"サークルK","南知多役場前",34.7146837,136.9306394
"サークルK","春日井神屋",35.2988838,137.0201251
"サークルK","一宮牛野通",35.2916728,136.8060012
"サークルK","木曽川黒田",35.350808,136.7796287
"サークルK","一色前野",34.812741,137.0321575
"サークルK","太子二丁目",35.0683328,136.9799391
"サークルK","郡上八幡インター",35.752634,136.9460104
"サークルK","飯田松尾",35.488141,137.8491805
"サークルK","野跡五丁目",35.0810092,136.8542489
"サークルK","穂高有明",36.3606459,137.8601455
"サークルK","伊賀下柘植",34.8249204,136.212757
"サークルK","碧南野田",34.8840607,136.9908926
"サークルK","東郷諸輪",35.1023647,137.069733
"サークルK","穂積町稲里",35.3887982,136.6795452
"サークルK","諏訪高島",36.0398786,138.1108474
"サークルK","一宮花池",35.2874561,136.7949553
"サークルK","鈴鹿庄野",34.879451,136.5221888
"サークルK","飛島大宝",35.0914547,136.774866
"サークルK","小牧元町",35.2899498,136.905446
"サークルK","吹上",35.1588413,136.9336387
"サークルK","豊明阿野町",35.0445009,137.0140433
"サークルK","西尾八ツ面",34.8716354,137.0744403
"サークルK","半田稲穂町",34.9383014,136.9627155
"サークルK","ちかま通",35.0984586,136.927461
"サークルK","西紀伊長島",34.1957446,136.3212449
"サークルK","松本水汲",36.2629945,137.9834117
"サークルK","名張赤目",34.6075942,136.0714387
"サークルK","信濃松川",36.4116544,137.8589152
"サークルK","三好丘桜",35.1147081,137.1105261
"サークルK","東浦役場前",34.9766954,136.9686832
"サークルK","三雲中道",34.6224224,136.5162091
"サークルK","青山町役場前",34.6696554,136.1759742
"サークルK","海老山",35.1161605,136.9713266
"サークルK","安曇野インター",36.3006254,137.9190153
"サークルK","西尾伊藤町",34.8771345,137.0535527
"サークルK","春日井松河戸",35.2232439,136.9609615
"サークルK","太閤通八丁目",35.167989,136.8579636
"サークルK","上野依那具",34.7319072,136.1463348
"サークルK","大町運動公園",36.4950101,137.8360603
"サークルK","寿小赤",36.1741118,137.969517
"サークルK","明和大淀",34.5603784,136.6538335
"サークルK","志摩庁舎前",34.3295092,136.8323043
"サークルK","茅野神之原",35.9955967,138.188221
"サークルK","小渡",35.230802,137.3617109
"サークルK","忠次一丁目",35.102317,136.9166537
"サークルK","岡崎生平町",34.9367376,137.2555292
"サークルK","亀山天神",34.8388681,136.4519235
"サークルK","刈谷南",34.9667686,137.037037
"サークルK","松阪梅村通り",34.5472157,136.534394
"サークルK","下呂温泉北",35.8302667,137.2337939
"サークルK","広瀬",35.1526969,137.2177264
"サークルK","一宮奥町",35.3303048,136.7552207
"サークルK","刈谷築地",35.0160188,137.0079391
"サークルK","大町合庁前",36.5086801,137.8635294
"サークルK","下呂竹原",35.7683722,137.2826867
"サークルK","大同町",35.0809602,136.9114552
"サークルK","志摩片田",34.2634167,136.8578863
"サークルK","小俣明野",34.5308378,136.6675177
"サークルK","津大里",34.7664955,136.4882048
"サークルK","河芸上野",34.7856163,136.5394247
"サークルK","付知尾ケ平",35.6618051,137.4285745
"サークルK","江南藤里",35.3574017,136.8601437
"サークルK","守山松坂町",35.215495,136.9812512
"サークルK","御立",35.0744546,137.1795332
"サークルK","尾西かごや",35.3105632,136.7713292
"サークルK","海津北高前",35.2474084,136.6244793
"サークルK","南上石津",35.2933828,136.4726998
"サークルK","名張百合が丘",34.6078746,136.1002443
"サークルK","豊明西川",35.0628999,137.0139085
"サークルK","五之里",35.4451161,136.6185707
"サークルK","元植田二丁目",35.1361477,136.9883462
"サークルK","如意南",35.2330141,136.9214363
"サークルK","飛騨金山",35.6516154,137.1552666
"サークルK","北高南",35.2344668,136.9135119
"サークルK","高山バイパス",36.1430644,137.2430677
"サークルK","長久手蟹原",35.1712447,137.031541
"サークルK","井川城",36.2171691,137.9632045
"サークルK","師勝清水",35.2518333,136.8749503
"サークルK","尾鷲駅前",34.0749642,136.1914753
"サークルK","東員鳥取",35.095584,136.5897812
"サークルK","高畑二丁目",35.1367792,136.8539524
"サークルK","刈谷西",34.9776275,137.0404132
"サークルK","金山南",35.1422764,136.8987534
"サークルK","北勢あげき",35.1464692,136.5116853
"サークルK","桑名桜通",35.0647718,136.6733837
"サークルK","松阪西黒部",34.5846274,136.5730061
"サークルK","可児梅白",35.4375334,137.0463275
"サークルK","小幡駅前",35.2009795,136.9756523
"サークルK","新岡崎中町",34.9535786,137.1831385
"サークルK","天竜峡",35.4290556,137.8033651
"サークルK","大井橋",35.1505027,136.9097521
"サークルK","弥富中六",35.1120456,136.7259381
"サークルK","長野田牧",36.59817,138.1749804
"サークルK","伊勢辻久留",34.4778797,136.681302
"サークルK","岐阜北長良",35.4600873,136.775749
"サークルK","弥富通四丁目",35.1186769,136.9533609
"サークルK","三好井之口",35.0927616,137.0626421
"サークルK","岡崎羽根西",34.9298396,137.1548499
"サークルK","須坂インター南",36.6328459,138.2698599
"サークルK","新東浦通",35.1109996,136.9442511
"サークルK","飛騨萩原",35.9240951,137.2037921
"サークルK","籠山",35.0823923,136.9835491
"サークルK","岐阜南うずら",35.3763375,136.7303646
"サークルK","長久手三ケ峯",35.1651463,137.0864368
"サークルK","篠ノ井二ツ柳",36.5694952,138.1273856
"サークルK","駈上",35.1144461,136.9374515
"サークルK","稲場町",35.0060398,137.0008592
"サークルK","国府広瀬",36.2141862,137.2090063
"サークルK","高山新宮",36.1380505,137.2159482
"サークルK","大垣安井町",35.3543501,136.6343016
"サークルK","楠本郷",34.9139119,136.6151875
"サークルK","八雲",35.1522845,136.9619477
"サークルK","本願寺町",35.1292144,136.9317403
"サークルK","加茂伊深",35.4960454,137.0041284
"サークルK","那加巾下",35.4101939,136.8471453
"サークルK","八百津牧野",35.4528234,137.080188
"サークルK","岐阜東金宝町",35.4147169,136.7618602
"サークルK","春日井堀ノ内",35.2499748,137.0064395
"サークルK","岐阜加納新本町",35.4067505,136.7490926
"サークルK","桑名くわべ",35.0518336,136.6419789
"サークルK","長野高田",36.6425968,138.2060757
"サークルK","清洲上条",35.2048576,136.832178
"サークルK","松本和田",36.2046886,137.9198197
"サークルK","熊野花のいわや",33.8782245,136.0915866
"サークルK","熊野有馬",33.8510191,136.0696487
"サークルK","紀州御浜",33.7790901,136.0322711
"サークルK","知多佐布里",34.9795685,136.8820593
"サークルK","西尾平坂",34.8623354,137.0139647
"サークルK","稲武町",35.2114013,137.4866044
"サークルK","岡崎富永",34.9545164,137.1221515
"サークルK","豊田大畑",35.1653777,137.1144704
"サークルK","岐南下印食",35.3908666,136.7715605
"サークルK","神戸横井",35.4374757,136.6019614
"サークルK","松本木工町",36.2027755,137.9576056
"サークルK","沢下町",35.1395629,136.9093416
"サークルK","大野黒野",35.4685027,136.6238612
"サークルK","長野伊勢宮",36.6334362,138.172479
"サークルK","各務原成清",35.3831494,136.8245655
"サークルK","岐阜日野南",35.4290992,136.8083117
"サークルK","岐阜中",35.4687851,136.7043625
"サークルK","豊明神明",35.0705375,137.0330625
"サークルK","津島西愛宕",35.1691786,136.731955
"サークルK","甚目寺八尻",35.190986,136.8297569
"サークルK","小牧織田井戸",35.2824695,136.9021547
"サークルK","木曽川役場前",35.3366556,136.7793824
"サークルK","高浜本郷",34.9297299,136.9991718
"サークルK","半田板山西",34.8932277,136.8798664
"サークルK","岐阜あかなべ",35.382595,136.7443552
"サークルK","阿久比西",34.9454263,136.8898642
"サークルK","飛騨丹生川",36.1694397,137.3059803
"サークルK","豊山和合橋",35.2523839,136.9115553
"サークルK","岡崎井内町",34.9216294,137.1479779
"サークルK","大口大屋敷",35.3287644,136.8922453
"サークルK","須坂小島",36.682944,138.2914668
"サークルK","瀬戸北山",35.2258065,137.0728431
"サークルK","磯部恵利原",34.3901819,136.7878972
"サークルK","稲沢高重東",35.2222744,136.8140567
"サークルK","富永三丁目",35.1257536,136.8068618
"サークルK","豊野アップルライン",36.709549,138.286466
"サークルK","岡崎大門",34.98235,137.1542725
"サークルK","篠ノ井バイパス",36.5701226,138.1507837
"サークルK","岐阜芋島",35.3937749,136.8070494
"サークルK","吉根住宅前",35.2294772,137.0171395
"サークルK","野跡二丁目",35.0771986,136.8542491
"サークルK","多治見太平町",35.3361484,137.1122267
"サークルK","穂高矢原",36.3244504,137.8964161
"サークルK","柳津本郷",35.3681655,136.7393452
"サークルK","須坂亀倉",36.6197185,138.3335662
"サークルK","伊勢一之木",34.5037104,136.7080236
"サークルK","一宮大和",35.2751962,136.781357
"サークルK","新宮あけぼの",33.7233146,136.0033621
"サークルK","池田田畑",35.4287169,136.5627681
"サークルK","南勢五ヶ所浦",34.3497968,136.704606
"サークルK","鈴鹿小田",34.8722592,136.4936685
"サークルK","岡谷湊湖畔",36.0332376,138.071409
"サークルK","尾張旭旭前",35.213276,137.0222479
"サークルK","紀州鵜殿",33.7342364,136.0059924
"サークルK","紀伊勝浦",33.6297234,135.9373309
"サークルK","紀州太地",33.5923224,135.9338049
"サークルK","豊田中町",35.0332029,137.1141095
"サークルK","岩村",35.3792574,137.4317982
"サークルK","共和インター北",35.0552256,136.9489002
"サークルK","四日市あかつき台",35.0316285,136.5954323
"サークルK","上田長野大学前",36.3691653,138.2188873
"サークルK","喜多山",35.2042104,136.989043
"サークルK","可児矢戸",35.4022058,137.0221312
"サークルK","一宮大赤見",35.3195532,136.8263512
"サークルK","野並一丁目",35.10852,136.9542503
"サークルK","今池三丁目",35.1665435,136.9362382
"サークルK","明和高校前",35.1831692,136.9097506
"サークルK","吉良岡山",34.8414698,137.0798412
"サークルK","北恵那福岡",35.5528471,137.4479889
"サークルK","東部湯の丸インター",36.365187,138.3486847
"サークルK","那加日新",35.395556,136.8242119
"サークルK","春日井大手田酉",35.2620617,136.9586319
"サークルK","小布施中松",36.6996118,138.3250632
"サークルK","桑名参宮通",35.0687356,136.6873823
"サークルK","高鷲インター",35.9528444,136.8798176
"サークルK","高山三福寺",36.1504751,137.2690682
"サークルK","伊賀大山田",34.770451,136.1996866
"サークルK","瀬戸紺屋田",35.2316066,137.1137314
"サークルK","津潮見ヶ丘",34.6874872,136.5036071
"サークルK","揖斐はぎなが",35.4646442,136.5711818
"サークルK","葵一丁目",35.1710507,136.9203393
"サークルK","安城榎前",34.9369118,137.0367174
"サークルK","南知多大井",34.7286719,136.9667698
"サークルK","東海中ノ池",34.9977609,136.8979491
"サークルK","山形グリーンロード",36.1582711,137.8907242
"サークルK","各務原三ッ池",35.3993039,136.8958418
"サークルK","瑞浪寺河戸",35.3697163,137.2530135
"サークルK","土岐土岐口",35.350545,137.1747209
"サークルK","可児川",35.4217756,137.0164198
"サークルK","岡崎竜美南",34.9388419,137.1691403
"サークルK","四日市青葉町",34.9717812,136.5830925
"サークルK","長野居町",36.648743,138.199776
"サークルK","知立新林",34.9908222,137.0454482
"サークルK","弥生が岡",35.1355863,136.9636483
"サークルK","大垣北方町",35.3931006,136.6118337
"サークルK","常滑古社",34.8896666,136.850805
"サークルK","泉楽通",35.100689,136.9041549
"サークルK","一色開正",34.8230346,137.0172053
"サークルK","三好あざぶ",35.0978726,137.0931063
"サークルK","江南上奈良",35.3333493,136.858215
"サークルK","小牧中央四丁目",35.2900193,136.9345436
"サークルK","塩尻郷原",36.129233,137.9358888
"サークルK","矢作小河原",34.9648076,137.1360499
"サークルK","設楽町清崎",35.0641621,137.5481921
"サークルK","弥富西中地",35.1222506,136.7310572
"サークルK","松本元町",36.2425746,137.9810129
"サークルK","豊明鎗ヶ名",35.051013,137.0006891
"サークルK","吉良宮迫",34.8288029,137.125649
"サークルK","名張原出",34.6355059,136.1118141
"サークルK","松阪岡本",34.5568121,136.5027352
"サークルK","大里睦合",34.777947,136.4774332
"サークルK","知多岡田",34.9678723,136.855361
"サークルK","大口新宮二丁目",35.3287039,136.9216509
"サークルK","中津川千旦林",35.4932145,137.4485916
"サークルK","各務原おがせ",35.4172442,136.90744
"サークルK","上田住吉",36.4120307,138.2757806
"サークルK","川島渡町",35.3633342,136.8082427
"サークルK","長野宇木",36.6691019,138.2039437
"サークルK","中央市場前",35.1365539,136.8928541
"サークルK","高蔵寺サンマルシェ",35.2840909,137.0493484
"サークルK","岐阜芥見南山",35.4564941,136.8559235
"サークルK","緑浦里",35.0844835,136.948152
"サークルK","岡崎美合",34.9255596,137.1830398
"サークルK","楠一丁目",35.2257069,136.9195478
"サークルK","東員六把野",35.0822925,136.5900678
"サークルK","岡崎滝町",34.9824036,137.1914364
"サークルK","岡崎上地",34.9126717,137.1683416
"サークルK","各務原市役所前",35.3981392,136.8480288
"サークルK","桑名陽だまりの丘",35.0849172,136.646766
"サークルK","岐阜西鏡島",35.4079527,136.7105568
"サークルK","外新町四丁目",35.1276137,136.8794557
"サークルK","津高茶屋",34.6682612,136.503875
"サークルK","稲沢長束",35.2400004,136.8092453
"サークルK","東海加木屋町",34.9830767,136.9106767
"サークルK","犬山五郎丸東",35.3637118,136.9567384
"サークルK","串本桟橋",33.4656522,135.7810234
"サークルK","岐阜各務野高校前",35.399457,136.904947
"サークルK","稲沢込野",35.2110331,136.7864596
"サークルK","武儀下之保",35.5387358,136.9976269
"サークルK","刈谷西境",35.0370508,137.0196592
"サークルK","丸の内一丁目",35.1732811,136.8965601
"サークルK","かねなわて",35.2457756,137.0296268
"サークルK","一宮おおけ",35.3414225,136.8064519
"サークルK","清洲御園",35.2220359,136.8416545
"サークルK","揖斐清水",35.4669216,136.6037769
"サークルK","長野小島",36.6650503,138.2576684
"サークルK","西尾下矢田",34.8481371,137.0230566
"サークルK","新赤坪",35.0943373,136.9404601
"サークルK","菰野桜野",35.0134553,136.5003704
"サークルK","長野屋島",36.6422195,138.2444586
"サークルK","飯南粥見",34.4484276,136.3806284
"サークルK","一宮花井方",35.2965046,136.7663573
"サークルK","春日井丁田橋",35.2704411,136.976841
"サークルK","魚の棚通",35.175489,136.9064402
"サークルK","長島インター",35.1036291,136.6997107
"サークルK","一宮平和",35.3002966,136.7860525
"サークルK","豊田柿本町",35.0743346,137.1247378
"サークルK","笠寺西門",35.0993866,136.9345524
"サークルK","伊勢楠部",34.4784165,136.72947
"サークルK","祖父江中屋敷",35.2636573,136.7211706
"サークルK","駒ヶ根アクセス",35.7416494,137.9350397
"サークルK","松本桐",36.2483739,137.9727213
"サークルK","佐久平駅前",36.2781073,138.4673148
"サークルK","瑞浪上野",35.3634139,137.2481142
"サークルK","岐阜長住町",35.4126948,136.7458096
"サークルK","八百津南",35.4687705,137.1298192
"サークルK","天白道明町",35.1249736,136.973348
"サークルK","安八南条",35.3186864,136.6602711
"サークルK","揖斐上南方",35.4978794,136.5567484
"サークルK","有松郷前",35.0489767,136.9730515
"サークルK","神戸川西",35.4140172,136.6045683
"サークルK","豊田井上",35.1237023,137.17862
"サークルK","郡上愛宕",35.7497566,136.963617
"サークルK","知立上重原",34.9938825,137.0272965
"サークルK","恵那加子母",35.7006221,137.3802847
"サークルK","上田踏入",36.3902077,138.2609408
"サークルK","ナゴヤドーム前",35.1901211,136.9463332
"サークルK","長野木工団地",36.6444802,138.23822
"サークルK","松阪かいばな",34.5734361,136.544609
"サークルK","ナディアパーク前",35.16606,136.9053128
"サークルK","栄東新町",35.1688979,136.9143699
"サークルK","上郷中央",35.5299374,137.8390964
"サークルK","津島宮川",35.1706782,136.7174671
"サークルK","岩倉東町",35.2881684,136.8735488
"サークルK","三好陣取山",35.0865336,137.0819287
"サークルK","養老船附",35.2807814,136.5992729
"サークルK","栄生駅前",35.1841795,136.8739615
"サークルK","多治見明和",35.3541434,137.1050265
"サークルK","安城桜町",34.9633957,137.0758469
"サークルK","上野平野",34.7725107,136.1382896
"サークルK","津島神守",35.1721557,136.7860239
"サークルK","塩尻吉田原",36.1641965,137.950932
"サークルK","いりなか駅ビル",35.1443042,136.9544487
"サークルK","各務原鵜沼南",35.396436,136.9395383
"サークルK","江南飛高町",35.346709,136.8673466
"サークルK","松阪大黒田",34.5666455,136.5260109
"サークルK","大府北山町",35.0341752,136.9663528
"サークルK","津島唐臼",35.160513,136.7541036
"サークルK","幸田六栗",34.8629438,137.1575948
"サークルK","中江二丁目",35.1053202,136.9466511
"サークルK","志摩鵜方",34.3286141,136.8218162
"サークルK","木場",35.0984061,136.8949557
"サークルK","氷室町",35.1064354,136.9074543
"サークルK","松本町神",36.1852799,137.9329195
"サークルK","佐織勝幡",35.197334,136.7518571
"サークルK","長久手武蔵塚",35.1733897,137.0448478
"サークルK","松阪川井町",34.5876401,136.5200854
"サークルK","山県警察署前",35.5040498,136.7886099
"サークルK","砂田橋五丁目",35.1868438,136.962473
"サークルK","辻畑町",35.1462524,136.8643451
"サークルK","大口余野",35.3417153,136.9110142
"サークルK","新大口",35.336703,136.9201287
"サークルK","一志嬉野インター",34.6390164,136.4505108
"サークルK","熊野いさと",33.9839823,136.0412499
"サークルK","鏡池通",35.1590947,136.9603475
"サークルK","四日市うねめ",34.9140031,136.5696582
"サークルK","稲沢大矢",35.2165667,136.7958055
"サークルK","犬山青木",35.3762184,136.9569488
"サークルK","佐織諏訪",35.1896046,136.7405644
"サークルK","知立南",35.0025708,137.0364124
"サークルK","小牧中宮",35.2745955,136.9130401
"サークルK","東幡豆",34.7936651,137.1522734
"サークルK","辰巳町",35.1107567,136.8928553
"サークルK","諏訪中洲",36.018962,138.1194117
"サークルK","小牧下小針",35.2694598,136.8998474
"サークルK","新港西福田",35.1140438,136.8060704
"サークルK","野並駅前",35.1018178,136.9561585
"サークルK","新長喜町",35.2036452,136.9191299
"サークルK","安城里町",35.0060773,137.0900608
"サークルK","岩倉北島",35.2740195,136.8501594
"サークルK","高山昭和町",36.138434,137.2498784
"サークルK","R21穂積",35.3853437,136.684199
"サークルK","犬山橋爪",35.3671781,136.9405206
"サークルK","松本埋橋",36.2284261,137.9790667
"サークルK","星ヶ丘ターミナル",35.1623418,136.9844454
"サークルK","名四川越",35.0187828,136.6806912
"サークルK","安城横山南",34.9550264,137.067554
"サークルK","各務原東門",35.4213103,136.881375
"サークルK","豊田広田",35.0405549,137.1053909
"サークルK","春日井追進町",35.2238435,136.942346
"サークルK","幸田大正",34.8894191,137.1647149
"サークルK","一宮下浅野",35.2914672,136.8278524
"サークルK","瑠璃光町",35.2000567,136.9241546
"サークルK","一宮瀬部",35.3303214,136.8445492
"サークルK","津栄町二丁目",34.7308187,136.5141293
"サークルK","大治西條",35.1720267,136.8114673
"サークルK","如意三丁目",35.2371667,136.9250528
"サークルK","蟹江インター",35.1463679,136.7782442
"サークルK","羽島舟橋町",35.3160813,136.6933624
"サークルK","小牧大草",35.2918231,136.9955445
"サークルK","本巣政田",35.4257468,136.649414
"サークルK","岐阜則松",35.4849633,136.6998541
"サークルK","豊田若林東",35.0193204,137.115649
"サークルK","西尾駒場",34.8699672,137.1076126
"サークルK","西尾善明",34.8530188,137.0946084
"サークルK","松本双葉",36.2077141,137.962572
"サークルK","多治見宝町",35.3431336,137.1074988
"サークルK","平針試験場南",35.1047293,137.0076461
"サークルK","小牧久保一色",35.3205492,136.9439694
"サークルK","小牧三ッ渕",35.2999174,136.888736
"サークルK","笹島南",35.1659147,136.8859284
"サークルK","朝日丸の内ビル",35.1738202,136.9050484
"サークルK","旭出三丁目",35.0881695,136.970081
"サークルK","中切六丁目",35.2157017,136.9068183
"サークルK","長野栗田西",36.638014,138.1910942
"サークルK","東海渡内",35.036715,136.9162318
"サークルK","松本神田",36.2166775,137.9872245
"サークルK","大口桜橋",35.3225152,136.8986451
"サークルK","植田南一丁目",35.1298562,136.9810831
"サークルK","桑名明竜町",35.0808152,136.6787915
"サークルK","松阪虹が丘",34.5454592,136.5532656
"サークルK","員弁町大泉",35.1060015,136.5684855
"サークルK","名阪上柘植インター",34.8315171,136.2370507
"サークルK","丸野町",35.2196926,136.8660995
"サークルK","春日井西本町",35.2334473,136.9342932
"サークルK","尾張旭桜ヶ丘",35.2202861,137.0139482
"サークルK","上田小泉",36.3833072,138.1859084
"サークルK","大高緑地公園",35.0721819,136.9559409
"サークルK","安城井杭山町",34.9742742,137.0602117
"サークルK","飯田桐林",35.4734232,137.8251082
"サークルK","神郷町一丁目",35.134524,136.8817552
"サークルK","松阪中部台",34.5497599,136.5019776
"サークルK","豊田白山",35.1017537,137.1245145
"サークルK","池上台",35.0920909,136.9633673
"サークルK","鈴鹿旭が丘",34.8447716,136.5775048
"サークルK","四日市滝川町",34.9753555,136.6251618
"サークルK","松本駅前",36.2306807,137.9661006
"サークルK","犬山桜海道",35.3488445,136.9639385
"サークルK","瑞穂上光",35.4136517,136.6859226
"サークルK","千種向陽",35.1715212,136.9481479
"サークルK","小牧スポーツ公園",35.3044874,136.9193442
"サークルK","港金船町",35.1100485,136.8758568
"サークルK","土岐インター",35.3700792,137.1915186
"サークルK","稲沢北島",35.2310292,136.7973077
"サークルK","天子田一丁目",35.1961244,136.9977787
"サークルK","美濃加茂清水",35.4465233,137.0340281
"サークルK","黒川本通五丁目",35.2037531,136.9118355
"サークルK","千種若水",35.1768786,136.9488446
"サークルK","中川法華",35.1277131,136.8488472
"サークルK","春日井田楽",35.2807705,136.9515426
"サークルK","東海しあわせ村",35.0414844,136.9073103
"サークルK","刈谷宝町",34.9948328,136.9914525
"サークルK","稲沢天池",35.2528424,136.7735587
"サークルK","駒ヶ根赤穂",35.7257962,137.9388541
"サークルK","安城新田町",34.9582966,137.0967454
"サークルK","可児土田",35.4257841,137.0102311
"サークルK","羽島足近",35.3465095,136.7238445
"サークルK","地下鉄金山",35.1432624,136.9014611
"サークルK","安城山崎",34.9933427,137.0918502
"サークルK","久居庄田",34.6775679,136.4292158
"サークルK","日進藤島",35.1404044,137.0570593
"サークルK","日進岩根",35.1487011,137.032799
"サークルK","日比津グランド前",35.1846102,136.8596437
"サークルK","大垣坂下",35.3865475,136.6256648
"サークルK","松本島高松",36.2475672,137.928567
"サークルK","春日井坂下七丁目",35.2886378,137.0134951
"サークルK","城西二丁目",35.1844878,136.8933519
"サークルK","諏訪文出",36.0285797,138.1077762
"サークルK","飯田上郷黒田",35.5350668,137.8358155
"サークルK","佐久市役所前",36.2497186,138.4782992
"サークルK","桑名多度",35.1409082,136.6471683
"サークルK","みやま相賀",34.1151635,136.2213569
"サークルK","羽島竹鼻町",35.3173404,136.7094531
"サークルK","稲沢大里",35.2263931,136.8199751
"サークルK","関市西田原",35.4448111,136.9557067
"サークルK","岐阜福光東",35.4524571,136.7750244
"サークルK","松本合庁前",36.2364327,137.9445162
"サークルK","東浦緒川植山",34.9701342,136.9185487
"サークルK","佐屋駅東",35.145431,136.7201071
"サークルK","中川長良町",35.1494412,136.8719193
"サークルK","熱田伝馬町",35.1207869,136.9112393
"サークルK","岐阜山県南",35.4920639,136.7777303
"サークルK","西春西之保",35.2440448,136.8566832
"サークルK","四日市生桑南",34.9806134,136.5964499
"サークルK","諏訪沖田二丁目",36.002353,138.136119
"サークルK","稲沢一色下方町",35.2381135,136.7468616
"サークルK","一宮馬寄",35.3279126,136.7871541
"サークルK","関迫間",35.4469211,136.915755
"サークルK","桑名松の木東",35.0780869,136.6473632
"サークルK","天白こうのす",35.1407363,136.9943455
"サークルK","天白植田東",35.1321952,136.9964847
"サークルK","いなべ藤原",35.1673748,136.4988854
"サークルK","錦通本町",35.1693316,136.9018519
"サークルK","幸田ふこうず",34.8408454,137.1702607
"サークルK","上田五加",36.3665043,138.2032967
"サークルK","伊那西町",35.8337788,137.9498483
"サークルK","四日市おごそ東",34.9274302,136.5978693
"サークルK","四日市東インター",35.0112017,136.626671
"サークルK","本陣通",35.1774191,136.8669544
"サークルK","小牧新町二丁目",35.2945876,136.9262441
"サークルK","飯島文化館前",35.6777339,137.9151443
"サークルK","千種汁谷町",35.18577,136.9711014
"サークルK","要町五丁目",35.0741232,136.9264542
"サークルK","各務原太平町",35.4024245,136.8331189
"サークルK","松阪大口",34.5904183,136.5465521
"サークルK","岐阜駅前",35.4109452,136.7580177
"サークルK","須坂駅西口",36.6571159,138.3023891
"サークルK","名東亀の井",35.1631838,136.9918227
"サークルK","桑名江場中町",35.0550011,136.686875
"サークルK","安城池浦",34.9719558,137.0802542
"サークルK","長野五分一",36.6461325,138.2123031
"サークルK","一宮定水寺",35.3155509,136.84335
"サークルK","岐阜長良真生",35.4488106,136.7802511
"サークルK","安八森部",35.334453,136.6752641
"サークルK","安城大北",34.9307177,137.0501506
"サークルK","岡崎法性寺",34.9273367,137.142632
"サークルK","三好明知",35.0610524,137.0845857
"サークルK","岩倉新柳町",35.2809881,136.8688495
"サークルK","半田青山",34.8807625,136.9065648
"サークルK","鈴鹿神戸七丁目",34.8860062,136.5781728
"サークルK","大垣丸の内",35.3606641,136.613875
"サークルK","武豊大足",34.8395952,136.9213984
"サークルK","大町常盤",36.4683312,137.8488804
"サークルK","伊那大萱",35.8704526,137.9352668
"サークルK","天白元八事",35.1236765,136.9632489
"サークルK","豊田市木",35.0943506,137.1888095
"サークルK","金山正木橋",35.146045,136.8972613
"サークルK","当知住宅東",35.109248,136.8462873
"サークルK","桑名安永東",35.0468489,136.6833567
"サークルK","中村岩上町",35.1630311,136.8378655
"サークルK","東あじま三丁目",35.2203347,136.9353028
"サークルK","熱田船方",35.1225145,136.8990153
"サークルK","佐織古瀬",35.1885049,136.7529694
"サークルK","岡崎光ヶ丘",34.9320898,137.17654
"サークルK","吉良町",34.7944009,137.0832411
"サークルK","豊田上郷",35.0135023,137.131721
"サークルK","半田緑ヶ丘",34.9330967,136.9515586
"サークルK","四日市松原町",35.0114722,136.6581854
"サークルK","鞍ヶ池PA",35.096642,137.2225816
"サークルK","伊勢上地",34.4967074,136.6667494
"サークルK","長野しもひがの",36.607728,138.1788046
"サークルK","恵那おおい",35.4549271,137.4189898
"サークルK","御嵩町",35.4357509,137.1179547
"サークルK","武豊冨貴駅東",34.8284794,136.9197661
"サークルK","三好藤塚",35.09588,137.1046274
"サークルK","師勝六ツ師",35.2550914,136.8990262
"サークルK","長久手杁ヶ池",35.1674481,137.033652
"サークルK","新宮緑ヶ丘",33.7217955,135.9919521
"サークルK","中川押元町",35.1398921,136.8656872
"サークルK","平田小学校前",35.2278937,136.8637804
"サークルK","羽島大浦",35.3232711,136.7287242
"サークルK","名北御成通",35.2006677,136.9299561
"サークルK","長久手南",35.1606318,137.0296307
"サークルK","国1川越",35.0244461,136.6717277
"サークルK","東海高横須賀",35.0101296,136.8979485
"サークルK","四日市鵜の森",34.9643015,136.6148182
"サークルK","小牧文津",35.3080366,136.9494555
"サークルK","大磯通五丁目",35.104678,136.9272608
"サークルK","緑伝治山",35.0916799,136.9574508
"サークルK","阿久比白沢",34.9511691,136.9144789
"サークルK","多治見美坂",35.3335072,137.1412804
"サークルK","刈谷高津波",35.0020901,136.9923991
"サークルK","松本大久保団地",36.204645,137.9388491
"サークルK","高浜屋敷町四丁目",34.9443933,136.9941326
"サークルK","わたらい大野木",34.4454104,136.639607
"サークルK","鳥見町二丁目",35.2020139,136.8880295
"サークルK","駒ヶ根北原",35.7435159,137.9193909
"サークルK","下條ひさわ",35.3821683,137.7895904
"サークルK","那智勝浦",33.6409782,135.9340026
"サークルK","四日市浜田",34.960707,136.6229537
"サークルK","守山向台",35.1979194,137.0060419
"サークルK","豊田宮町",35.0872133,137.1250711
"サークルK","四日市午起",34.9760587,136.6418834
"サークルK","北方加茂",35.4403909,136.689596
"サークルK","新杉田",35.384964,139.6202162
"サークルK","鶴見中央",35.5097607,139.6800055
"サークルK","善行",35.3645116,139.4727074
"サークルK","武蔵小山",35.6186405,139.7041065
"サークルK","相模大野南口",35.5309792,139.4380326
"サークルK","鴨居",35.5113386,139.5672148
"サークルK","岸谷",35.4971118,139.6658352
"サークルK","藤沢駅前",35.3373618,139.4861875
"サークルK","生麦",35.4951031,139.6677072
"サークルK","岡村",35.4188964,139.6199147
"サークルK","平作",35.259442,139.6545271
"サークルK","東戸塚",35.4274194,139.5595193
"サークルK","北久里浜",35.2523853,139.6815752
"サークルK","矢向一丁目",35.5296495,139.6758939
"サークルK","愛川中津",35.5248799,139.3259422
"サークルK","辻堂新町",35.338464,139.4509714
"サークルK","座間さがみ野",35.4738461,139.4256783
"サークルK","大田千鳥",35.5681297,139.6946206
"サークルK","平塚岡崎",35.3764905,139.3079425
"サークルK","平塚真土",35.3536796,139.3464404
"サークルK","新羽駅前",35.5282655,139.6107754
"サークルK","南足柄まました",35.330142,139.1118109
"サークルK","釜台町",35.47246,139.5848341
"サークルK","厚木上落合",35.4108555,139.3503604
"サークルK","日野南三丁目",35.3797277,139.5711095
"サークルK","小田原曽我",35.305113,139.185706
"サークルK","日吉二丁目",35.5551163,139.6470501
"サークルK","茅ヶ崎常盤",35.3243843,139.439017
"サークルK","小田原酒匂",35.2706967,139.1886463
"サークルK","宮崎台駅前",35.5880338,139.5920092
"サンクス","大口駅東口",35.4929759,139.646709
"サークルK","稲田堤駅前",35.6340558,139.5314201
"サークルK","碑文谷一丁目",35.6213429,139.6892996
"サークルK","神楽坂三丁目",35.7011523,139.7411916
"サークルK","平塚北金目",35.3636464,139.285867
"サンクス","登戸新町",35.6221797,139.5656098
"サークルK","上大崎二丁目",35.6368587,139.7142968
"サークルK","清新四丁目",35.5797806,139.3604868
"サークルK","茅ヶ崎富士見町",35.3257311,139.4341784
"サークルK","相模原小町通",35.5703986,139.3589374
"サークルK","舞岡町",35.4102101,139.5503208
"サークルK","西橋本",35.5913901,139.3410069
"サークルK","本町田南",35.5633397,139.4340125
"サークルK","菖蒲沢",35.3993323,139.4399835
"サークルK","川崎苅宿",35.5652545,139.6624044
"サークルK","横浜新山下",35.4376591,139.6605104
"サークルK","東村山八坂駅前",35.7458617,139.4666123
"サークルK","恵比寿一丁目",35.6470077,139.7164961
"サークルK","川崎千年",35.5793744,139.6293145
"サークルK","愛川角田",35.5287545,139.3288338
"サークルK","相模原下溝",35.532186,139.3763297
"サークルK","横浜上飯田",35.4333153,139.4771259
"サンクス","横浜羽衣町",35.4439809,139.6341123
"サークルK","相模原中丸",35.5357047,139.3787293
"サークルK","高円寺南",35.7050723,139.6510069
"サークルK","川崎元住吉駅前",35.5646564,139.655405
"サークルK","三鷹新川団地",35.6733243,139.571407
"サークルK","小平上水本町",35.7178788,139.4686135
"サークルK","PCP丸の内",35.6777743,139.7667905
"サークルK","瀬谷卸本町",35.4982885,139.4843223
"サークルK","小平大沼町",35.7425326,139.496918
"サークルK","文京後楽二丁目",35.7058629,139.745891
"サークルK","川崎宮崎一丁目",35.586392,139.5907984
"サンクス","府中浅間町",35.6842029,139.5007203
"サークルK","練馬南田中一丁目",35.73138,139.6207892
"サンクス","八王子北野台",35.6333058,139.3514241
"サークルK","国分寺北町",35.7171175,139.4518149
"サークルK","平塚大神",35.3889011,139.3620345
"サークルK","上野広小路",35.708719,139.7728936
"サンクス","神田須田町一丁目",35.6960034,139.7708784
"サークルK","愛川田代",35.5262132,139.2931369
"サークルK","府中晴見町",35.678553,139.4734039
"サークルK","海老名下今泉",35.4613358,139.3868321
"サークルK","湘南松尾",35.3265752,139.3853384
"サークルK","津久井三ヶ木",35.5905442,139.2285393
"サークルK","横浜吉野町",35.4346616,139.6164112
"サークルK","座間さがみ野三丁目",35.4695355,139.4228897
"サークルK","渋谷笹塚一丁目",35.673507,139.6701978
"サークルK","小田原寿町",35.2605195,139.1704593
"サークルK","大和下鶴間北",35.5106646,139.4516024
"サークルK","練馬平和台",35.755978,139.657393
"サークルK","港北太尾町",35.5193057,139.62086
"サークルK","品川シーサイド",35.6077874,139.7494392
"サンクス","大船二丁目",35.352305,139.5364577
"サークルK","板橋蓮沼",35.7688444,139.7028917
"サークルK","中野早稲田通り",35.7096111,139.6692972
"サークルK","調布佐須町五丁目",35.6602895,139.5578337
"サークルK","小田原国府津",35.2806099,139.2042556
"サンクス","茅ヶ崎若松町",35.3322361,139.4149777
"サークルK","横浜池辺町",35.5150301,139.5644478
"サークルK","小平学園西町",35.724995,139.470613
"サークルK","川崎チネチッタ通",35.528661,139.6987031
"サークルK","港北綱島",35.5440363,139.6390073
"サークルK","厚木温水",35.4409032,139.3456754
"サークルK","厚木西インター",35.4169979,139.351737
"サークルK","江戸川船堀",35.6776061,139.869222
"サークルK","大井松田インター",35.3378419,139.1527902
"サークルK","新横浜駅前",35.5090207,139.6168108
"サークルK","伊勢原板戸",35.3965852,139.3000733
"サークルK","平塚四之宮",35.3486883,139.3567068
"サークルK","調布深大寺南",35.6696854,139.5553615
"サークルK","練馬石神井町八丁目",35.7474359,139.5980014
"サークルK","武蔵村山伊奈平",35.739339,139.3826726
"サークルK","町田鶴間",35.5148395,139.4701227
"サークルK","横浜綱島東",35.5412366,139.6395044
"サンクス","横浜青葉台",35.5431763,139.5151176
"サークルK","足柄西大井",35.3171721,139.1516582
"サークルK","厚木三田",35.4966772,139.3422471
"サークルK","湘南東海岸北",35.3246447,139.4063677
"サークルK","新横浜三丁目",35.5116394,139.6180485
"サークルK","小平天神町一丁目",35.7277453,139.5008103
"サークルK","平塚西真土三丁目",35.3599649,139.3455652
"サークルK","武蔵中原",35.5797576,139.6445132
"サークルK","世田谷瀬田",35.6184251,139.6264219
"サークルK","練馬北町一丁目",35.7632664,139.6676948
"サークルK","品川天王洲アイル",35.6229108,139.7494945
"サークルK","横浜沢渡",35.4710748,139.6185544
"サークルK","府中押立町",35.6594138,139.5126015
"サークルK","練馬富士街道",35.7372147,139.5814862
"サークルK","瑞穂長岡",35.7796256,139.3233867
"サークルK","大田東糀谷",35.5569978,139.744417
"サンクス","国立泉",35.6771524,139.4290266
"サークルK","世田谷粕谷",35.6618842,139.6075075
"サークルK","鶴見駒岡",35.5291412,139.6528818
"サークルK","横浜上星川",35.4664746,139.5821156
"サークルK","厚木三田南",35.4696174,139.358587
"サークルK","目黒駅東口",35.634912,139.7165967
"サークルK","厚木下荻野",35.4831715,139.3324356
"サークルK","横浜蒔田",35.4247826,139.6111151
"サークルK","国分寺西町",35.7088761,139.4351637
"サークルK","府中清水が丘",35.6644319,139.4954137
"サークルK","練馬中村北",35.734319,139.6411274
"サークルK","横浜大棚町",35.5481878,139.5783842
"サークルK","杉並方南町駅",35.6837247,139.6565664
"サークルK","町田森野五丁目",35.550482,139.4333131
"サークルK","相模原陽光台",35.5567893,139.3749287
"サークルK","海老名社家",35.4174203,139.3778318
"サークルK","東久留米前沢",35.7472325,139.5199189
"サークルK","鶴見寛政町",35.5027618,139.7000571
"サンクス","八王子高倉町",35.6640998,139.3694962
"サークルK","都筑梅田橋",35.5196658,139.57182
"サークルK","東京競馬場ウエスト",35.6648637,139.4826107
"サークルK","羽村神明台",35.7588029,139.3273403
"サークルK","川崎鷺沼",35.5742739,139.5697337
"サークルK","寒川一之宮",35.3610254,139.3813881
"サークルK","羽田空港貨物",35.5571624,139.7822028
"サークルK","伊勢原上粕屋",35.4106947,139.3036663
"サークルK","港北大倉山",35.5324302,139.6198994
"サークルK","愛川六倉",35.5297797,139.3461493
"サークルK","鶴見獅子ヶ谷",35.5229797,139.6475776
"サークルK","川崎有馬",35.5767048,139.5786458
"サークルK","淵野辺駅南口",35.5677725,139.3940146
"サークルK","相模原上溝",35.5512998,139.3657067
"サークルK","小平たかの街道",35.7259778,139.4648494
"サークルK","世田谷玉堤",35.5975448,139.6527027
"サークルK","平塚片岡",35.3631537,139.2982849
"サークルK","厚木山際",35.5006031,139.3621263
"サークルK","鵠沼海岸",35.3239718,139.4661688
"サークルK","晴海センタービル",35.6553999,139.7825383
"サークルK","台東千束",35.7217151,139.7954421
"サークルK","湯河原土肥",35.1415998,139.0927952
"サークルK","伊勢原下落合",35.4001907,139.3506779
"サークルK","厚木依知北",35.50138,139.3614223
"サークルK","調布成城富士見橋",35.6469235,139.5921055
"サークルK","相模原淵野辺本町",35.5700064,139.4027357
"サークルK","座間小松原",35.4933761,139.4308369
"サークルK","練馬大泉町",35.7683857,139.6019001
"サークルK","鎌倉女子大前",35.3584786,139.5467235
"サークルK","相模湖町",35.6131311,139.1924322
"サークルK","昭島武蔵野",35.719247,139.3741312
"サークルK","小田原たじま",35.2849102,139.1913704
"サークルK","江東有明",35.6421366,139.7960228
"サークルK","町田中町一丁目",35.5467517,139.4471541
"サークルK","厚木岡田二丁目",35.4275929,139.358648
"サークルK","川崎上小田中",35.5912621,139.6296989
"サークルK","横浜和泉町",35.4347043,139.4851271
"サークルK","藤沢下土棚",35.4076387,139.4579386
"サークルK","相模原鵜野森",35.5394892,139.4335096
"サークルK","横浜下永谷",35.412301,139.559841
"サークルK","横浜狩場町",35.4450519,139.5800338
"サークルK","東名厚木インター",35.4224954,139.3597421
"サークルK","八王子野猿東中野",35.6349866,139.4104461
"サークルK","旭上川井",35.496833,139.5013709
"サークルK","小平花小金井二丁目",35.7305462,139.5161089
"サークルK","羽村市役所通",35.7548902,139.321004
"サークルK","東村山本町",35.7544429,139.4693607
"サークルK","神木本町二丁目",35.6013232,139.5833993
"サークルK","川崎野川",35.5747404,139.6009831
"サークルK","東五反田スクエア",35.6247412,139.7271413
"サークルK","秦野ひらさわ",35.3758856,139.1968388
"サークルK","練馬平和台二丁目",35.7595246,139.6590367
"サークルK","大田大森南二丁目",35.5638681,139.7453796
"サークルK","相模原田名豊原",35.55497,139.3456272
"サークルK","小平小川町二丁目",35.7322713,139.4710216
"サークルK","小平あかしあ通り",35.7289229,139.4878444
"サークルK","伊勢原桜台",35.392479,139.3216696
"サークルK","川崎東百合丘",35.5969047,139.528647
"サークルK","相模原緑が丘",35.5477264,139.3802266
"サークルK","川崎宮前南平台",35.5948927,139.5706617
"サークルK","秦野南矢名",35.3725092,139.2661162
"サークルK","厚木市立病院",35.4482877,139.359039
"サークルK","相模原麻溝公園前",35.5289367,139.3966231
"サークルK","海老名中新田五丁目",35.4355944,139.3828826
"サークルK","オアシス21前",35.1719804,136.9090722
"サークルK","みよし市東山台",35.0861479,137.0870781
"サークルK","安城警察署西",34.959349,137.0716275
"サークルK","守山八剣",35.2043457,137.0058686
"サークルK","一宮花池一丁目",35.2917227,136.7984918
"サークルK","亀山野村",34.8555571,136.4385968
"サークルK","鈴鹿柳町",34.8745158,136.5998575
"サークルK","中川西伏屋",35.1421101,136.8205679
"サークルK","名東藤見が丘東",35.1807345,137.0230883
"サークルK","金山町",35.1403552,136.9007067
"サークルK","守山上志段味",35.2568636,137.0400444
"サークルK","明和23号バイパス",34.5724337,136.6284661
"サークルK","美濃加茂川合",35.4481963,137.046958
"サークルK","豊田緑ヶ丘",35.0625702,137.1420279
"サークルK","名東本通一丁目",35.161098,136.989697
"サークルK","めいわ明星",34.5195543,136.6301234
"サークルK","中村則武二丁目",35.171063,136.8781628
"サークルK","鶴見通二丁目",35.0753139,136.9142672
"サークルK","一宮小日比野",35.3402461,136.8316918
"サークルK","あま新居屋",35.2029014,136.8123558
"サークルK","岐阜新北島",35.4328385,136.7299726
"サークルK","西神の倉",35.1022845,137.0030556
"サークルK","伊那西春近",35.7958364,137.946751
"サークルK","西岐阜駅南",35.4020396,136.722752
"サークルK","扶桑町南山名",35.362386,136.9024669
"サークルK","名東延珠町",35.191817,137.0033154
"サークルK","豊田京町",35.1094326,137.1665447
"サークルK","稲沢北島皿屋敷",35.2258667,136.79658
"サークルK","刈谷半城土西",34.9776741,137.0151333
"サークルK","安城和泉東",34.9211377,137.0649223
"サークルK","豊田運動公園前",35.1300358,137.1861601
"サークルK","守山瀬古一丁目",35.2117926,136.9355396
"サークルK","半田やなべ高山",34.9086588,136.9204823
"サークルK","富士見町富士見",35.9192447,138.2234046
"サークルK","半田南本町",34.8914968,136.9327361
"サークルK","松阪殿町",34.5757235,136.5231407
"サークルK","守山小幡常燈",35.1983747,136.9740506
"サークルK","美浜河和台二丁目",34.7716187,136.9064682
"サークルK","武豊梨子ノ木",34.8662761,136.9056045
"サークルK","四日市城西町",34.9646892,136.6023032
"サークルK","長野やなぎはら西",36.6563681,138.2484446
"サークルK","豊田上野町",35.0871552,137.1787917
"サークルK","豊田美里四丁目",35.0795021,137.1841666
"サークルK","飯田東和町",35.5203651,137.8227612
"サークルK","津市垂水",34.6949703,136.4978573
"サークルK","塩尻高出",36.1226281,137.9590832
"サークルK","名古屋上飯田北町",35.2047054,136.9343636
"サークルK","常滑マリオン",34.8903889,136.8707193
"サークルK","中川富田公園東",35.1466145,136.8127863
"サークルK","ひえい辻",35.0686826,135.8840491
"サークルK","皇子山",35.0213682,135.8612451
"サークルK","東彦根",35.2523256,136.264359
"サークルK","やわた",34.8733364,135.7062148
"サークルK","開出今",35.2601792,136.2313224
"サークルK","宇治駅前",34.8904032,135.8015451
"サークルK","北白川",35.0599019,135.7913382
"サークルK","西京極",34.9961074,135.7138585
"サークルK","伏見横大路",34.9269373,135.745928
"サークルK","白川別当町",35.0327738,135.7917394
"サークルK","四条梅津",35.0035253,135.6983595
"サークルK","吉祥院長田町",34.9636582,135.7355082
"サークルK","京都一乗寺",35.0436007,135.7921388
"サークルK","精華光台",34.7436931,135.7584424
"サークルK","大枝沓掛",34.9756447,135.6628217
"サークルK","伊吹",35.3723569,136.3883102
"サークルK","銘城台",34.8458757,135.8432547
"サークルK","久我石原",34.9478267,135.722621
"サークルK","宇治中川原",34.9040775,135.7877826
"サークルK","大山崎円明寺",34.9122908,135.6850838
"サークルK","吉祥院東前田",34.9696436,135.7378358
"サークルK","京都原谷",35.0461881,135.7193138
"サークルK","烏丸寺ノ内",35.0339321,135.759147
"サークルK","河原町竹屋町",35.0154283,135.7686421
"サークルK","守山千代",35.0420014,135.9966969
"サークルK","守山下之郷",35.0661767,135.9892324
"サークルK","大津雄琴駅前",35.0965388,135.8954388
"サークルK","七条壬生",34.9893477,135.7458562
"サークルK","京阪五条",34.9958474,135.7692429
"サークルK","北大路白川",35.04012,135.7897472
"サークルK","西大路三条",35.0078344,135.7315955
"サークルK","上桂山田口",34.9904076,135.6925606
"サークルK","烏丸六角",35.007252,135.7594502
"サークルK","岩倉西河原",35.0704496,135.7819524
"サークルK","光明中学前",34.7117926,135.7051223
"サークルK","押熊",34.7142795,135.7727856
"サークルK","新大宮",34.6874721,135.8118426
"サークルK","ならやま大通り",34.7204528,135.7704345
"サークルK","奈良阪",34.701471,135.8363159
"サークルK","奈良上牧町",34.5535456,135.7063795
"サークルK","郡山小泉",34.6287763,135.7502404
"サークルK","奈良六条",34.6660736,135.7688582
"サークルK","郡山いまごう",34.61591,135.7682575
"サークルK","猿沢の池",34.681829,135.8291914
"サークルK","奈良古市",34.6611814,135.8404634
"サークルK","御所西寺田",34.4396671,135.727775
"サークルK","都祁白石",34.5980933,135.9631561
"サークルK","桜井吉備",34.5080446,135.8274796
"サークルK","天理ながら",34.5769151,135.8232687
"サークルK","高田神楽",34.5228835,135.7435339
"サークルK","郡山インター",34.6079404,135.7984614
"サークルK","五條病院前",34.3412821,135.698148
"サークルK","橿原五条野",34.4725369,135.8026753
"サークルK","天理柳本",34.5611312,135.8452476
"サークルK","天理井戸堂",34.5891107,135.8170657
"サークルK","奈良北之庄",34.6548957,135.8195625
"サークルK","大和小泉駅前",34.6224922,135.7652155
"サークルK","みみなし駅前",34.5124858,135.8141975
"サークルK","南京終町",34.6698522,135.8243564
"サークルK","三郷勢野北",34.6059518,135.6976888
"サークルK","奈良鶴舞東町",34.7086888,135.7527295
"サークルK","奈良藤ノ木台",34.6736606,135.7568918
"サークルK","三郷立野南",34.5902783,135.6850376
"サークルK","橿原内膳町",34.5158681,135.7910742
"サークルK","奈良宝来",34.6838809,135.7767367
"サークルK","奈良学園大和町",34.6922933,135.7414142
"サークルK","広陵町平尾",34.5418065,135.7454918
"サークルK","桜井安倍木",34.5032343,135.8379379
"サークルK","河合町池部",34.5802663,135.7411804
"サークルK","橿原くずもと町",34.5266121,135.8029267
"サークルK","王寺本町",34.5950781,135.7030839
"サークルK","大和郡山池之内",34.6306154,135.76629
"サークルK","葛城八川",34.5102834,135.7160097
"サークルK","磯城三宅",34.5784281,135.7753017
"サークルK","奈良県立医大前",34.5040954,135.7944905
"サークルK","奈良大安寺",34.6664975,135.819163
"サークルK","近鉄東山駅前",34.6470786,135.7080621
"サークルK","香芝真美ヶ丘二丁目",34.5415131,135.719277
"サークルK","奈良恋の窪",34.67341,135.8075698
"サークルK","香芝良福寺",34.5281579,135.7063871
"サークルK","奈良中山町",34.7127337,135.7726047
"サークルK","上牧町米山台",34.559506,135.7114047
"サークルK","粟生外院",34.843125,135.5026911
"サークルK","寝屋川石津",34.7785479,135.6158267
"サークルK","高槻岡本町",34.8519986,135.5899035
"サークルK","大峰南町",34.8118217,135.689911
"サークルK","豊中空港前",34.7939853,135.4434683
"サークルK","箕面小野原",34.8339712,135.5156715
"サークルK","花博記念公園前",34.7175206,135.5672835
"サークルK","高槻芝生住宅前",34.8282535,135.6071831
"サークルK","茨木大池",34.8086661,135.583497
"サークルK","豊中上津島",34.7556677,135.4606906
"サークルK","大東諸福",34.7054275,135.6030811
"サークルK","土塔町",34.5340132,135.506461
"サークルK","横堤四丁目",34.7085186,135.5683839
"サークルK","佐井寺一丁目",34.7839987,135.5211843
"サークルK","本庄西三丁目",34.7145978,135.5039969
"サークルK","佐太中町七丁目",34.7633022,135.5937792
"サークルK","甲南山手",34.7307754,135.2913838
"サークルK","深江本町一丁目",34.7243022,135.2990405
"サークルK","吉田本町",34.676262,135.6236807
"サークルK","伊丹大鹿",34.790824,135.4080934
"サークルK","東太田四丁目",34.8428104,135.5809766
"サークルK","宮之川原",34.8673101,135.5996629
"サークルK","南本町一丁目",34.6830283,135.508279
"サークルK","長洲東通一丁目",34.729822,135.4352939
"サークルK","泉佐野長滝",34.3835586,135.3217976
"サークルK","岸部北五丁目",34.7848568,135.5328913
"サークルK","豊川病院前",34.5558631,135.5815898
"サークルK","大阪日本橋",34.6675079,135.5058909
"サークルK","羽曳野白鳥",34.5533438,135.6059879
"サークルK","富田林中野町東",34.5110125,135.6118723
"サークルK","東大阪長田",34.6767303,135.5871838
"サークルK","国道星丘",34.8102263,135.6614794
"サークルK","社町貝原",34.9185023,134.9465258
"サークルK","関目一丁目",34.7063154,135.5466858
"サークルK","阪南町三丁目",34.6290762,135.5158729
"サークルK","柏原円明町",34.5592605,135.624994
"サークルK","市之町東",34.5748953,135.4786165
"サークルK","岸和田野田",34.4568283,135.3823109
"サークルK","岸和田下池田",34.4699272,135.4012007
"サークルK","尼崎元浜町",34.712412,135.3870877
"サークルK","堺毛穴町",34.5273442,135.4699004
"サークルK","播磨町三丁目",34.6169354,135.5105009
"サークルK","中町森本",35.0433416,134.9281106
"サークルK","阪南鳥取中",34.3549208,135.2491346
"サークルK","枚方田口山",34.827458,135.6903762
"サークルK","平野西一丁目",34.6198666,135.5407792
"サークルK","泉佐野市場西",34.4070855,135.3194874
"サークルK","東大阪加納",34.7003065,135.6259794
"サークルK","社町木梨",34.9235413,134.9803118
"サークルK","河内長野西之山町",34.4545567,135.5636599
"サークルK","天満三丁目",34.6949251,135.5150889
"サークルK","長田中五丁目",34.6849885,135.5900831
"サークルK","堺八下町",34.5584702,135.5443928
"サークルK","大阪空港綜合ビル",34.7953131,135.4393906
"サークルK","遠里小野一丁目",34.6006679,135.4997835
"サークルK","内久宝寺町三丁目",34.6790908,135.5153896
"サークルK","氷上町稲継",35.1530069,135.0449959
"サークルK","茨木鮎川",34.8128609,135.5940939
"サークルK","東大阪菱江",34.6769808,135.6147814
"サークルK","門真三ツ島",34.7170152,135.5965811
"サークルK","堺材木町西",34.5845112,135.4763972
"サークルK","尼崎浜田町",34.7288304,135.3979971
"サークルK","摂津鶴野",34.7804188,135.5649138
"サークルK","貝塚二色",34.4450319,135.3460144
"サークルK","吹田春日",34.7789518,135.4961476
"サークルK","名神豊中インター",34.7550148,135.4621985
"サークルK","茨木並木町",34.8096469,135.5771785
"サークルK","大阪中之島",34.6930469,135.4942877
"サークルK","大正千島一丁目",34.6504312,135.4759802
"サークルK","大阪肥後橋",34.6908692,135.4961797
"サークルK","豊中長興寺北",34.7757928,135.4793301
"サークルK","神戸枝吉",34.6603104,134.9771322
"サークルK","神戸有瀬",34.6641167,135.0163097
"サークルK","宝塚安倉中",34.8052749,135.3772533
"サークルK","神戸上沢駅前",34.6737961,135.1588805
"サークルK","岸和田藤井",34.4656664,135.3849243
"サークルK","明石荷山",34.6556614,135.006158
"サークルK","西宮大屋町",34.7457501,135.365535
"サークルK","遠里小野二丁目",34.5984261,135.4982027
"サークルK","寝屋川点野",34.7738452,135.603034
"サークルK","東中浜四丁目",34.6877285,135.5503943
"サークルK","泉南男里",34.3707352,135.2509038
"サークルK","堺鳳西町",34.5273498,135.4468913
"サークルK","鶴見諸口一丁目",34.6976399,135.5749618
"サークルK","西神中央駅",34.7199657,135.0172821
"サークルK","長吉長原",34.6055876,135.5713853
"サークルK","大正小林西",34.6465295,135.468595
"サークルK","摂津正雀駅前",34.775494,135.5461886
"サークルK","尾井千原",34.5111014,135.4343181
"サークルK","アスタくにづか",34.6531622,135.1472774
"サークルK","泉南幡代",34.3565819,135.2649613
"サークルK","尼崎次屋三丁目",34.740471,135.4416509
"サークルK","公園南矢田",34.6056508,135.5236563
"サークルK","熊取大久保中",34.4048442,135.3445834
"サークルK","神戸潤和",34.666452,134.9933225
"サークルK","堺百舌鳥赤畑町",34.5573615,135.4948639
"サークルK","尼崎塚口本町",34.7590076,135.4207268
"サークルK","神戸脇浜",34.6940338,135.2067146
"サークルK","西脇高田井南",34.9849984,134.9628294
"サークルK","東大阪玉串",34.6505036,135.6156216
"サークルK","長田浜添通",34.6527144,135.1571206
"サークルK","南森町",34.6968218,135.5112041
"サークルK","城東今福西一丁目",34.6986273,135.5494689
"サークルK","岸和田三田",34.4537015,135.4338068
"サークルK","枚方長尾家具町",34.8383321,135.7080083
"サークルK","八尾南太子堂",34.6110293,135.584287
"サークルK","吹田津雲台七丁目",34.8058271,135.5071425
"サークルK","長田川西通",34.663833,135.1487208
"サークルK","堺大泉緑地",34.5659001,135.5232112
"サークルK","東大阪楠根",34.6823026,135.5821949
"サークルK","平野西脇",34.6275188,135.5438286
"サークルK","八尾春日町",34.6195285,135.5889422
"サークルK","東淀川瑞光",34.7491137,135.5391924
"サークルK","神戸菅原通",34.6645441,135.15722
"サークルK","豊中緑丘",34.8168945,135.482464
"サークルK","阿波座駅前",34.6806621,135.486134
"サークルK","松原天美我堂",34.5797516,135.5235015
"サークルK","尼崎東七松町",34.7327383,135.4113488
"サークルK","近畿中央病院",34.7630178,135.4012872
"サークルK","山陽垂水",34.629488,135.0528493
"サークルK","柏原田辺一丁目",34.5627714,135.6377708
"サークルK","茨木島",34.7912549,135.5784432
"サークルK","南吹田一丁目",34.7506911,135.5118696
"サークルK","東大阪大蓮",34.6381321,135.569412
"サークルK","平野長吉長原西",34.6022079,135.5665079
"サークルK","枚方住宅",34.8207281,135.6565274
"サークルK","岸和田中井町東",34.4756747,135.4058741
"サークルK","神戸丸塚",34.6795365,134.9848366
"サークルK","門真舟田町",34.7329276,135.6033608
"サークルK","東住吉南田辺",34.6219051,135.5259244
"サークルK","池田旭丘一丁目",34.8214904,135.4460328
"サークルK","豊中熊野町二丁目",34.7896365,135.4862649
"サークルK","池田石橋駅前",34.8078948,135.4443576
"サークルK","茨木畑田町",34.826209,135.5657516
"サークルK","堺金岡町",34.556806,135.5191669
"サークルK","茨木島三丁目",34.7900059,135.5745115
"サークルK","西宮津門大箇町",34.735793,135.359058
"サークルK","生野巽東",34.646239,135.5567297
"サークルK","堺日置荘原寺",34.540025,135.5361133
"サークルK","平野本町",34.6209407,135.5541951
"サークルK","神戸御幸通",34.6930088,135.1984683
"サークルK","茨木南目垣",34.8052887,135.597633
"サークルK","神戸八多町",34.8277464,135.2008199
"サークルK","堺長曽根町南",34.5613313,135.5075547
"サークルK","東大阪西堤",34.6728507,135.5826593
"サークルK","摂津鳥飼",34.7696902,135.5763274
"サークルK","枚方宮之阪駅前",34.8140148,135.6565827
"サークルK","西宮能登町",34.7514242,135.3525858
"サークルK","八尾東町",34.631016,135.6329411
"サークルK","和泉箕形町二丁目",34.4676831,135.4382567
"サークルK","伊丹鴻池四丁目",34.8001057,135.3899075
"サークルK","和泉内田町",34.4444438,135.4534466
"サークルK","名神豊中インター南",34.7479565,135.4642047
"サークルK","守口東通",34.7189367,135.5822662
"サークルK","西宮山口町名来",34.8416656,135.2381151
"サークルK","摂津千里丘東",34.7906786,135.5562621
"サークルK","岸和田流木東",34.433012,135.3934771
"サークルK","大蓮南",34.6359584,135.5735798
"サークルK","城東関目三丁目",34.7094551,135.5473436
"サークルK","狭山山本東",34.5093394,135.5426262
"サークルK","平野瓜破",34.6039634,135.5488093
"サークルK","泉南砂川",34.3639516,135.2899338
"サークルK","守口東郷",34.7282347,135.579542
"サークルK","菱江三丁目",34.6764948,135.6160774
"サークルK","西宮上大市",34.7621753,135.3661982
"サークルK","東大阪布市",34.6923895,135.6372399
"サークルK","伊丹中野東",34.7902787,135.3901709
"サークルK","松原天美我堂五丁目",34.5844202,135.5278929
"サークルK","鶴見緑地東",34.7125914,135.5823695
"サークルK","堺浜寺船尾町",34.5478519,135.4587004
"サークルK","神戸垂水星陵台",34.6467051,135.0499907
"サークルK","八尾萱振南",34.6388307,135.6039141
"サークルK","鶴見安田二丁目",34.7056373,135.5902142
"サークルK","高槻古曽部",34.8577116,135.6242483
"サークルK","大阪万博公園",34.8104128,135.5168594
"サークルK","交野倉治西",34.7942486,135.6918426
"サークルK","川西加茂六丁目",34.8117178,135.4115451
"サークルK","東大阪森河内西",34.6810465,135.5642035
"サークルK","丹波氷上香良",35.2064872,135.0439855
"サークルK","堺美原南余部",34.532648,135.5475827
"サークルK","南海湊駅前",34.5715044,135.4605731
"サークルK","門真大橋",34.7214396,135.5911354
"サークルK","泉南信達牧野",34.3585499,135.2779911
"サークルK","泉佐野中庄",34.405219,135.3382669
"サークルK","茨木沢良宜浜",34.7947264,135.5701387
"サークルK","住吉苅田二丁目",34.6035439,135.5171779
"サークルK","茨木小川町",34.8107997,135.5686111
"サークルK","西宮桜谷",34.7442918,135.3388063
"サークルK","宝塚栄町",34.8138923,135.3364923
"サークルK","箕面船場",34.8265986,135.4883421
"サークルK","宝塚安倉南",34.7986936,135.3771306
"サークルK","八尾小畑町",34.6416325,135.6142301
"サークルK","神戸箕谷インター",34.7625216,135.1539878
"サークルK","神戸甲栄台",34.7417067,135.1470353
"サークルK","枚方大橋",34.808624,135.6324899
"サークルK","東大阪横枕西",34.6820281,135.605156
"サークルK","松原丹南",34.5589344,135.5581436
"サークルK","平野長吉出戸",34.6089523,135.57416
"サークルK","尼崎南武庫之荘",34.7445796,135.3864613
"サークルK","摂津庄屋",34.7848272,135.5528506
"サークルK","堺三宝町",34.5948851,135.4722171
"サークルK","貝塚警察署前",34.4444202,135.3595244
"サークルK","川西でざいけ",34.8361084,135.4208382
"サークルK","大阪本庄西",34.7140109,135.503336
"サークルK","茨木東安威二丁目",34.8577136,135.5658382
"サークルK","豊中城山町",34.7687662,135.4765029
"サークルK","吹田長野西",34.7907673,135.5408763
"サークルK","東大阪吉田下島",34.6719964,135.6205812
"サークルK","大東新田西町",34.7123708,135.5998208
"サークルK","池田豊島南",34.8026021,135.4308293
"サークルK","橋本小峰台",34.3494568,135.6280213
"サークルK","東大阪藤戸",34.6737067,135.5884605
"サークルK","河内長野木戸",34.4699841,135.5707166
"サークルK","摂津正雀本町",34.776106,135.5498213
"サークルK","赤穂警察署前",34.7560111,134.3982608
"サークルK","東住吉矢田",34.6056829,135.5289369
"サークルK","四条富小路",35.0035885,135.764713
"サークルK","河原町丸太町",35.018428,135.7694359
"サークルK","大津相模町",34.9931297,135.8852524
"サークルK","草津野村",35.030472,135.9582197
"サークルK","烏丸八条口",34.9830036,135.7595113
"サークルK","大津ひえい平",35.0363081,135.8283972
"サークルK","長浜柳町",35.3905591,136.2795274
"サークルK","烏丸御池",35.0101097,135.7599541
"サークルK","久御山佐山",34.8749369,135.7492582
"サークルK","中久世一丁目",34.9608101,135.7128252
"サークルK","西院駅前",35.0036949,135.7313277
"サークルK","宇治紫ケ丘",34.9030615,135.7789614
"サークルK","宇治槙島",34.9135173,135.7768151
"サークルK","三条河原町",35.008651,135.7684614
"サークルK","堀川今出川",35.0292955,135.7514539
"サークルK","宇治神明",34.8846316,135.7860557
"サークルK","烏丸丸太町",35.0172359,135.7591428
"サークルK","七条堀川",34.9890588,135.7525556
"サークルK","桃山南団地前",34.9256932,135.7867027
"サークルK","東山清水坂",34.9964804,135.7769533
"サークルK","久御山森",34.8911731,135.742551
"サークルK","精華学研都市",34.749801,135.7855919
"サークルK","男山石城",34.8612095,135.6953413
"サークルK","竹田七瀬川",34.9513629,135.7593178
"サークルK","城陽北清水",34.8405553,135.7884375
"サークルK","守山阿村町",35.0390436,135.9896256
"サークルK","多賀大社駅前",35.2265957,136.2845615
"サークルK","湖南菩提寺",35.038698,136.0677272
"サークルK","七条京阪",34.9891591,135.7694432
"サークルK","大山崎インター",34.9049198,135.6975421
"サークルK","伏見新堀川",34.9263845,135.7500587
"サークルK","東寺駅前",34.9795988,135.7517281
"サークルK","山科西野山",34.9739802,135.7980526
"サークルK","大津国分一丁目",34.9705022,135.891298
"サークルK","師団街道深草",34.9723689,135.7683161
"サークルK","亀岡イトーピア",35.0004848,135.5908655
"サークルK","木津梅美台",34.7172873,135.8358042
"サークルK","大津におの浜",35.0049063,135.8811632
"サークルK","大津唐崎",35.0487155,135.8730849
"サークルK","栗東小平井",35.0398601,135.9681544
"サークルK","高倉泉正寺町",35.0060372,135.762423
"サークルK","甲西梅影町",35.0120428,136.1248927
"サークルK","西洞院御池",35.0111685,135.7555594
"サークルK","新小栗栖街道",34.9402098,135.7956873
"サークルK","千本赤池",34.9488129,135.7427663
"サークルK","大津大将軍",34.9926413,135.9203445
"サークルK","彦根西今",35.2476647,136.2413531
"サークルK","甲西日枝",35.020742,136.1286229
"サークルK","彦根小泉",35.2494616,136.2493024
"サークルK","葛野大路高辻",34.9988792,135.7193579
"サークルK","亀岡篠町",35.0038656,135.6016755
"サークルK","八幡医療センター",35.1245872,136.0877876
"サークルK","大津大萱",34.9862229,135.9145423
"サークルK","湖南夏見",34.996136,136.0960048
"サークルK","草津駅東口",35.021439,135.9623617
"サークルK","伏見醍醐大構",34.9479942,135.8101527
"サークルK","京田辺三山木",34.7989406,135.7804541
"サークルK","伏見向島本丸",34.9240811,135.7698832
"サークルK","大津真野",35.1353761,135.9233927
"サークルK","向日森本",34.9497512,135.7087301
"サークルK","伏見舞台町",34.9424919,135.7571434
"サークルK","八幡川口",34.8780151,135.7181056
"サークルK","守山播磨田町",35.0666578,135.9962318
"サークルK","彦根松原",35.2830392,136.2614808
"サークルK","堀川御池",35.0107145,135.7509768
"サークルK","木津大谷",34.7292987,135.8179622
"サークルK","伏見墨染",34.9484354,135.7658704
"サークルK","八幡美濃山",34.850106,135.7120464
"サークルK","京田辺市役所東",34.8140308,135.7691843
"サークルK","草津野路",34.9968505,135.9550525
"サークルK","右京団子田町",34.9890581,135.7149558
"サークルK","伏見出羽屋敷",34.9459336,135.7637927
"サークルK","湖南石部南",34.9986491,136.0590757
"サークルK","守山金森町",35.0592783,135.9842912
"サークルK","西大路駅前",34.9800614,135.7323827
"サークルK","彦根高宮東",35.2291051,136.2691017
"サークルK","打田豊田",34.2776779,135.3518217
"サークルK","麻生津大橋",34.2685995,135.4455113
"サークルK","橋本古佐田",34.3184362,135.6172088
"サークルK","和歌山禰宜",34.2394411,135.2438324
"サークルK","和歌山南出島",34.2178426,135.1951454
"サークルK","和歌山六十谷",34.2593932,135.2005601
"サークルK","和歌山インター",34.2454701,135.221209
"サークルK","和歌山大浦街道",34.2093518,135.1591378
"サークルK","和歌山バイパス西野",34.2592441,135.3087951
"サークルK","四条大宮東",35.0038522,135.7500492
"サークルK","和歌山中之島水道路",34.241352,135.1943324
"サークルK","宇治一ノ坪",34.9042604,135.783567
"サークルK","草津渋川",35.0222189,135.9635176
"サークルK","北野白梅町",35.0260505,135.7312237
"サークルK","木津川久保",34.7301694,135.8033633
"サークルK","大津石山寺四丁目",34.9599804,135.8940812
"サークルK","木津川相楽",34.7368106,135.7985964
"サークルK","精華乾谷",34.7298598,135.7707761
"サークルK","山科三条通",34.9899079,135.819807
"サークルK","京都岩倉中町",35.076804,135.7882586
"サークルK","栗東手原",35.0248033,136.0012203
"サークルK","和歌山塩屋五丁目",34.2010841,135.1806874
"サークルK","長岡京野添",34.9347736,135.6956129
"サークルK","烏丸十条",34.9735346,135.7593138
"サークルK","亀岡クニッテル通り",35.0045763,135.5898684
"サークルK","烏丸仏光寺",35.0011886,135.7594545
"サークルK","長岡京城の里",34.9157159,135.7072008
"サークルK","四条河原町",35.0056763,135.7690335
"サークルK","京都嵯峨広沢",35.0212812,135.6894344
"サークルK","草津西大路",35.0222039,135.9597379
"サークルK","南草津野路町",35.0025907,135.9438761
"サークルK","京都伏見天王後",34.929097,135.7414643
"サークルK","京都久御山佐古",34.8807644,135.7529886
"サークルK","伏見小栗栖",34.9445654,135.8018846
"サークルK","八幡月夜田",34.8625845,135.7058513
"サークルK","和歌山小雑賀",34.2048068,135.1846129
"サークルK","五条大宮",34.996051,135.7493556
"サークルK","亀岡下矢田",35.0042681,135.5778055
"サークルK","近江八幡鷹飼町",35.1230765,136.1007256
"サークルK","久世工業団地",34.9518323,135.7227468
"サークルK","彦根竹ヶ鼻",35.2432932,136.2462559
"サークルK","六地蔵駅前",34.9339515,135.7970725
"サークルK","西九条南田町",34.9786658,135.7464286
"サークルK","草津団地前",35.0165633,135.9487921
"サークルK","和歌山岩橋",34.2376031,135.2305196
"サークルK","佛教大学前",35.0450306,135.7381403
"サークルK","西院南",35.002208,135.7317188
"サークルK","大津今堅田",35.1207836,135.9203106
"サークルK","京都産業大学前",35.0703449,135.7536376
"サークルK","草津橋岡町",35.0110476,135.9351035
"サークルK","北山栗栖町",35.0490562,135.7439786
"サークルK","伏見深草西浦",34.9601171,135.7615682
"サークルK","宇治槇島目川",34.9131144,135.7802588
"サークルK","久御山もみいけ",34.8751131,135.7581324
"サークルK","大津稲津一丁目",34.9484319,135.9131742
"サークルK","東大丸町",34.9958584,135.7214535
"サークルK","守山えんま堂",35.0504373,135.9837956
"サークルK","草津南笠東",34.9920558,135.9445726
"サークルK","小山新町通",35.043705,135.754505
"サークルK","和歌山三葛",34.1950819,135.189408
"サークルK","伏見西丹波橋",34.9400211,135.7554987
"サークルK","伏見津知橋町",34.9446497,135.7632018
"サークルK","和歌山井辺",34.2205396,135.2135248
"サークルK","和歌山関戸",34.1958653,135.1591114
"サークルK","城陽寺田",34.8519778,135.7727453
"サークルK","堀川御薗橋",35.0556607,135.7515647
"サークルK","八戸湊橋",40.5228697,141.5205998
"サークルK","十和田西二番町",40.6155623,141.2069096
"サークルK","十和田相坂",40.5899145,141.2383732
"サークルK","青森野内",40.8526042,140.8249804
"サークルK","東北町乙供",40.7755501,141.2159341
"サークルK","青森浜館",40.8053615,140.7813342
"サークルK","平川平賀駅前",40.5850654,140.5627546
"サークルK","つがる市役所前",40.8089922,140.3816052
"サンクス","青森油川",40.8557136,140.695464
"サンクス","八戸湊鮫ノ口",40.5164994,141.5302266
"サンクス","青森アピオ前",40.8173367,140.7478914
"サークルK","岡山岩田",34.669366,133.9220614
"サークルK","表町二丁目",34.6603781,133.9297502
"サークルK","岡山千珠園",34.7022784,134.0304899
"サークルK","玉島唐船南",34.5370323,133.6420147
"サークルK","倉敷ライフパーク前",34.5371305,133.77161
"サークルK","早島バイパス",34.6081188,133.8218335
"サークルK","玉野長尾",34.496001,133.8888111
"サークルK","水島北緑町",34.5489348,133.7437737
"サークルK","岡山赤坂",34.7932878,133.9836616
"サークルK","岡山平福",34.6164281,133.9484006
"サークルK","岡山楢原",34.7053457,134.0667147
"サークルK","玉野東児",34.5545387,133.9998932
"サークルK","倉敷浜の茶屋",34.6137863,133.7698456
"サークルK","岡山桑野",34.6168397,133.9814809
"サークルK","岡山中央町",34.6565534,133.9232229
"サークルK","岡山青江",34.6287794,133.9232242
"サークルK","備前西片上",34.739208,134.1797368
"サークルK","倉敷水江",34.5962767,133.7408408
"サークルK","里庄浜中",34.4992444,133.5332875
"サークルK","倉敷東富井",34.5729654,133.7535578
"サークルK","岡山政津",34.636416,134.0038031
"サークルK","倉敷花の街",34.6138832,133.7636691
"サークルK","長船土師",34.6953973,134.0973926
"サークルK","岡山西大寺上二丁目",34.660551,134.0366353
"サークルK","倉敷下庄",34.6391877,133.835312
"サークルK","倉敷西阿知",34.5882344,133.7316419
"サークルK","赤穂新田",34.7633088,134.3715807
"サークルK","玉島爪崎",34.5631322,133.684808
"サークルK","岡山西大寺松崎",34.6620883,134.0075546
"サークルK","津山インター",35.0625511,134.0469299
"サークルK","久米町桑下",35.0267557,133.9189812
"サークルK","赤穂加里屋中洲",34.7503516,134.3940794
"サークルK","津山平福",35.0520819,133.9694698
"サークルK","津山北園",35.0749661,134.0036359
"サークルK","津山国分寺",35.0568606,134.0393948
"サークルK","津山小田中",35.0615091,133.9804435
"サークルK","岡山内尾",34.5999423,133.85675
"サークルK","久米支所前",35.05853,133.8988064
"サークルK","妹尾東",34.6075779,133.8792288
"サークルK","長船服部",34.7100398,134.1003057
"サークルK","倉敷東塚",34.5269515,133.7621422
"サークルK","笠岡美の浜",34.4905391,133.5184281
"サークルK","玉野玉原",34.4826638,133.9126288
"サークルK","長船船山",34.7259362,134.1081183
"サークルK","児島下の町",34.475971,133.8221116
"サークルK","岡山西川原一丁目",34.6777384,133.9352879
"サークルK","倉敷中島南",34.5821111,133.7363358
"サークルK","岡山中島田町",34.6577921,133.9120317
"サークルK","岡山花尻",34.6593942,133.8697022
"サークルK","岡山高屋",34.6743003,133.9684873
"サークルK","岡山東岡山",34.6829768,133.9938098
"サークルK","苫田鏡野町",35.0776676,133.9383242
"サークルK","倉敷児島柳田町",34.490386,133.8001967
"サークルK","岡山箕島",34.6083301,133.8415259
"サークルK","院庄インター",35.0626994,133.9471022
"サークルK","玉島八島",34.5562188,133.676395
"サークルK","倉敷平田",34.617786,133.7796676
"サークルK","水島亀島",34.5309804,133.7243422
"サークルK","倉敷児島唐琴",34.4692004,133.8646944
"サークルK","岡山北長瀬",34.6513533,133.8855322
"サークルK","倉敷鶴新田",34.5330268,133.7059886
"サークルK","岡山大安寺",34.6598165,133.8934812
"サークルK","倉敷笹沖西",34.5741875,133.7689645
"サークルK","倉敷西中新田",34.5837425,133.7675132
"サークルK","岡山藤田",34.6150465,133.9042094
"サークルK","倉敷中島松之内",34.5806703,133.7403856
"サークルK","岡山豊成",34.6320402,133.9311013
"サークルK","倉敷庄パークヒルズ",34.6589724,133.8220752
"サークルK","岡山東古松",34.6467104,133.9176068
"サークルK","倉敷玉島乙島",34.5271131,133.6825488
"サークルK","岡山金岡東町",34.6381242,134.0260942
"サークルK","玉野田井",34.5194584,133.9442514
"サークルK","倉敷片島",34.570381,133.7159031
"サークルK","岡山下中野本町",34.6410218,133.9050011
"サークルK","岡山鹿田",34.6515038,133.9170306
"サークルK","水島南畝",34.5176453,133.7509996
"サークルK","赤磐沢原",34.8013127,134.0804162
"サークルK","バラ園前",34.6507584,133.8308748
"サークルK","岡山瀬戸万富",34.7580552,134.0760055
"サークルK","マスカット球場前",34.6175646,133.8086382
"サークルK","岡山大福",34.6247681,133.8844326
"サークルK","備前伊部",34.7421715,134.1663657
"サークルK","倉敷児島小川",34.4888634,133.8117649
"サークルK","倉敷玉島一丁目",34.5474798,133.680913
"サークルK","岡山田中",34.6420782,133.8772594
"サークルK","岡山平井五丁目",34.6388617,133.9448699
"サークルK","岡山倉益",34.6443137,133.97679
"サークルK","岡山中島",34.6882897,133.9461789
"サークルK","倉敷玉島勇崎",34.5275513,133.6451199
"サークルK","倉敷西坂",34.6241553,133.7758546
"サークルK","倉敷沖",34.5885267,133.75515
"サークルK","赤穂東浜町",34.738612,134.4034792
"サークルK","赤穂さくら通り",34.7572729,134.3980608
"サークルK","松本村井",36.1742006,137.9604177
"サークルK","紀州三輪崎",33.6901928,135.9853931
"サークルK","大府法林坊",35.0180287,136.9527176
"サークルK","東郷木戸西",35.1140764,137.0666267
"サークルK","東海富木島",35.01714,136.9081364
"サークルK","上田天神",36.4000065,138.2471115
"サークルK","犬山鶴池",35.330435,136.9395803
"サークルK","尾張旭北本地ヶ原",35.1974839,137.0355475
"サークルK","守山大森",35.2014378,136.9951737
"サークルK","豊田丸山",35.0646481,137.151314
"サークルK","鈴鹿国府",34.8559864,136.520517
"サークルK","昭和塩付通一丁目",35.1537089,136.9382476
"サークルK","正木不破一色",35.3314701,136.7226593
"サークルK","阿久比植大",34.9155261,136.9218899
"サークルK","加茂白川",35.5779429,137.1892812
"サークルK","松本二子橋",36.1994086,137.9437819
"サークルK","上田三好町",36.392918,138.2345849
"サークルK","長野安茂里",36.6234008,138.1475375
"サークルK","久居新町",34.6833543,136.4843089
"サークルK","日進蟹甲",35.1314821,137.0451497
"サークルK","千種今池一丁目",35.1685402,136.9330493
"サークルK","松本空港前",36.1631932,137.9287098
"サークルK","守山森孝新田",35.192948,137.0132336
"サークルK","伊賀上野桑町",34.7588621,136.1326237
"サークルK","松阪五反田",34.5646285,136.5169927
"サークルK","土田東",35.4273031,137.0204382
"サークルK","上田上丸子",36.3175327,138.2685045
"サークルK","高浜芳川",34.9374079,136.9852446
"サークルK","豊田秋葉",35.0599789,137.1673449
"サークルK","大垣赤坂",35.394363,136.5861317
"サークルK","日進栄三丁目",35.1216564,137.0543634
"サークルK","江南後飛保西町",35.3489284,136.8442264
"サークルK","三好三本松",35.0803944,137.0915112
"サークルK","東浦石浜",34.9642297,136.9706416
"サークルK","津かんべ",34.7115672,136.4818338
"サークルK","松川元大島",35.5877542,137.8980139
"サークルK","名四亀須",35.0288039,136.6859373
"サークルK","瀬戸平町二丁目",35.220996,137.0683747
"サークルK","御嵩井尻",35.4275664,137.1529581
"サークルK","大紀町",34.3339513,136.4081314
"サークルK","一宮緑四丁目",35.2988554,136.8231215
"サークルK","上田常磐城",36.4090304,138.2415975
"サークルK","刈谷末広",34.9723131,137.0411994
"サークルK","瑞浪小田",35.3568205,137.2455207
"サークルK","春日下之郷",35.2300602,136.8510863
"サークルK","津ふじかた",34.6820349,136.5142395
"サークルK","愛西日置",35.1603486,136.7310495
"サークルK","緑敷田",35.0711125,136.9845245
"サークルK","豊生橋南",35.0966787,136.9196318
"サークルK","大治北間島",35.1768305,136.8290086
"サークルK","豊田深見",35.1791326,137.1933382
"サークルK","千種豊年町",35.1751416,136.9385726
"サークルK","東郷山崎",35.0880409,137.0498433
"サークルK","長野吉田一丁目",36.6693631,138.2155067
"サークルK","一宮三ツ井",35.2744712,136.8379524
"サークルK","中島新町四丁目",35.1214018,136.8507503
"サークルK","木曽日義",35.8833872,137.7623475
"サークルK","栄武平通",35.1661131,136.9106703
"サークルK","南箕輪大泉",35.8820089,137.9645748
"サークルK","瑞穂田光町",35.1241308,136.9232882
"サークルK","江南高屋",35.347671,136.8720991
"サークルK","桑名ニュータウン",35.0876656,136.6312461
"サークルK","新扶桑柏森",35.353168,136.9041742
"サークルK","松本寿北",36.1902021,137.972374
"サークルK","土岐下石",35.3139039,137.1726507
"サークルK","港築盛",35.1029182,136.8708235
"サークルK","南野二丁目",35.0804606,136.9288677
"サークルK","長野上高田",36.6397972,138.2126193
"サークルK","伊勢おばた",34.5092343,136.6793618
"サークルK","四日市笹川通り",34.9524771,136.575239
"サークルK","岡崎鴨田",34.9807973,137.1630139
"サークルK","大府凪場",35.0255369,136.9529543
"サークルK","小牧原新田",35.3030069,136.934912
"サークルK","飯田上殿岡",35.5012009,137.8075894
"サークルK","美濃大矢田",35.5315534,136.8781782
"サークルK","不破関ヶ原",35.3647734,136.4842526
"サークルK","四日市上海老",35.0345482,136.5697387
"サークルK","大垣インター南",35.3103945,136.6165361
"サークルK","新春日井南下原",35.2661305,136.9720086
"サークルK","岐阜茜部寺屋敷",35.3759749,136.7525368
"サークルK","刈谷井ヶ谷",35.057668,137.0456421
"サークルK","多治見小泉町",35.3470101,137.1017131
"サークルK","春日井如意申町",35.2468822,136.953783
"サークルK","桑名大山田",35.0778927,136.6356562
"サークルK","高山江名子",36.1366416,137.2696958
"サークルK","安城堀内",34.9322462,137.0891303
"サークルK","小牧三丁目",35.2909769,136.9219696
"サークルK","中小田井三丁目",35.2128934,136.8699245
"サークルK","港明正一丁目",35.1162143,136.845842
"サークルK","長野駅前",36.6439933,138.1876002
"サークルK","長野松岡",36.6257668,138.2154867
"サークルK","四日市三ツ谷東町",34.9828298,136.6332688
"サークルK","ルーセントタワー",35.1749866,136.8811174
"サークルK","瑞浪益見",35.3614873,137.2618011
"サークルK","松阪伊勢寺町",34.5681444,136.4743681
"サークルK","新一宮浅野羽根",35.2922713,136.8374606
"サークルK","松本堀米",36.2293384,137.9453554
"サークルK","梅森坂三丁目",35.146994,137.0180043
"サークルK","桑名東インター",35.0866824,136.6717848
"サークルK","国1関宿",34.849415,136.3999973
"サークルK","天白菅田",35.1118858,136.9636604
"サークルK","菰野千草",35.0374777,136.503732
"サークルK","城西病院前",35.159223,136.8646434
"サークルK","関ひだせ",35.4748187,136.9456922
"サークルK","守山下しだみ",35.2451895,137.0192216
"サークルK","岐阜芥見五丁目",35.4472698,136.842266
"サークルK","伊勢小木町",34.5081462,136.7229192
"サークルK","伊那上川手",35.8369014,137.999363
"サークルK","名東高針台",35.1621224,137.0190915
"サークルK","岡崎小美町",34.9344923,137.2240469
"サークルK","揖斐黒野",35.4706138,136.6382049
"サークルK","刈谷司町",34.9839028,136.9817628
"サークルK","安城大東",34.9657116,137.0870489
"サークルK","岐南薬師寺",35.3759583,136.774043
"サークルK","東海秋葉",35.0494377,136.9198919
"サークルK","新小牧小木",35.2715795,136.8940108
"サークルK","中村横井",35.1481517,136.8350554
"サークルK","津島越津町",35.1778212,136.7598863
"サークルK","古出来西",35.1819089,136.9388542
"サークルK","勢和多気",34.4553621,136.5066276
"サークルK","半田乙川",34.9049385,136.9400099
"サークルK","刈谷東",34.973942,137.044671
"サークルK","西尾羽塚",34.8610477,137.0262618
"サークルK","枇杷島警察署前",35.2007025,136.8625927
"サークルK","四日市茂福町",34.9995043,136.6495087
"サークルK","南知多山海",34.7192287,136.8994358
"サークルK","守山一丁目",35.1968596,136.9545972
"サークルK","名張松原",34.6330159,136.0975404
"サークルK","新大治三本木",35.1686173,136.8232534
"サークルK","岡谷インター東",36.0848246,138.0416141
"サークルK","半田やなべ西",34.9086006,136.9071954
"サークルK","四日市楠町東",34.9170749,136.6367645
"サークルK","瑞穂十九条",35.3952533,136.6655201
"サークルK","春日井小野町三丁目",35.2293872,136.9617541
"サークルK","西幡豆町",34.7961864,137.1248555
"サークルK","鈴鹿桜島二丁目",34.8531097,136.5745026
"サークルK","港東通",35.0918231,136.9169152
"サークルK","大山田PA上り",35.0850003,136.6562942
"サークルK","ひるがの高原SA",35.9874842,136.9088956
"サークルK","南陽通六丁目",35.0974823,136.9012212
"サークルK","美濃加茂前平",35.4504043,137.0020186
"サークルK","名張希央台",34.6247658,136.1006435
"サークルK","長野しののい",36.5670717,138.1408256
"サークルK","大垣笠木町",35.3786979,136.5983135
"サークルK","中川小栗橋",35.152945,136.8819373
"サークルK","豊田若宮",35.0913444,137.1568683
"サークルK","緑細口",35.085813,136.9886385
"サークルK","四日市東坂部",34.9994755,136.6010907
"サークルK","養老宇田",35.3294876,136.5650385
"サークルK","昭和狭間町",35.1558855,136.9269204
"サークルK","児玉西",35.1953396,136.8871099
"サークルK","関市東新町",35.4816898,136.9357997
"サークルK","北名古屋中之郷",35.2511728,136.8445069
"サークルK","大台かわぞえ",34.4173645,136.4699314
"サークルK","岐阜北鶉",35.3857164,136.7279154
"サークルK","木曽上松",35.7225846,137.7154398
"サークルK","中丸町二丁目",35.2046898,136.9033501
"サークルK","羽島福寿町",35.3358602,136.6974392
"サークルK","津島江西",35.1757486,136.7143672
"サークルK","星が丘元町",35.1623048,136.9861552
"サークルK","瑞穂新瑞橋",35.1174788,136.9378393
"サークルK","鳥羽松尾町",34.4437212,136.8437211
"サークルK","岐阜城東通",35.4014794,136.7665404
"サークルK","一宮浅井",35.3412298,136.8200288
"サークルK","多治見平和町",35.3279174,137.1176367
"サークルK","津ヨットハーバー",34.71016,136.5192058
"サークルK","下呂市役所前",35.8053955,137.2445571
"サークルK","名城公園北",35.1913163,136.9039777
"サークルK","一宮玉ノ井",35.3331737,136.7659676
"サークルK","紀勢大内山インター",34.2926154,136.3884349
"サークルK","豊田広美町",35.0051719,137.1186394
"サークルK","佐久根岸",36.2412396,138.4268349
"サークルK","幸田町荻",34.8628192,137.1773361
"サークルK","岐阜こがね",35.4219161,136.7580752
"サークルK","伊賀上之庄",34.7321847,136.1213528
"サークルK","四日市別名",34.9949445,136.6297925
"サークルK","七宝伊福橋",35.1544564,136.800995
"サークルK","甚兵衛通二丁目",35.1031337,136.8462806
"サークルK","豊田大島町",35.0351487,137.0600209
"サークルK","丸の内七間町通",35.175148,136.9029235
"サークルK","中村名駅四丁目",35.1709052,136.887442
"サークルK","名張西原町",34.6546759,136.1167888
"サークルK","伊賀阿山",34.8325539,136.1750878
"サークルK","大高中川",35.0690738,136.9307121
"サークルK","千種茶屋坂通",35.1829911,136.9601464
"サークルK","名東八前",35.1799549,136.9847685
"サークルK","金城町二丁目",35.1984026,136.9068141
"サークルK","中あじま三丁目",35.2222643,136.9215398
"サークルK","伊勢桜木町",34.4702741,136.7154096
"サークルK","東名三好インター",35.1122499,137.0875671
"サークルK","不破府中",35.3859308,136.5250732
"サークルK","三好上前",35.0768229,137.0981468
"サークルK","四日市泊山崎",34.9418216,136.5981736
"サークルK","扶桑高雄",35.364437,136.9164927
"サークルK","美濃加茂深田町",35.4335841,137.0037353
"サークルK","名南白水",35.0754767,136.9072498
"サークルK","半田亀崎",34.9243599,136.963658
"サークルK","犬山南",35.3647934,136.9433294
"サークルK","朝宮公園前",35.2578621,136.9579532
"サークルK","瑞穂内方町",35.1219453,136.9404979
"サークルK","嬉野中川",34.6353763,136.4753049
"サークルK","東起町一丁目",35.1227405,136.842516
"サークルK","一宮いわと",35.3256538,136.7820546
"サークルK","上田長池",36.3883023,138.2249439
"サークルK","上田中丸子",36.33311,138.2707846
"サークルK","名東よもぎ台",35.1759364,136.9914681
"サークルK","長野合戦場",36.5772019,138.1576408
"サークルK","松本中央二丁目",36.2314106,137.9697283
"サークルK","瑞浪陶町",35.3094635,137.2940129
"サークルK","各務原三井町",35.3909557,136.8335084
"サークルK","関くらち",35.4564477,136.8895367
"サークルK","土岐平成",35.3178487,137.1894022
"サークルK","小牧篠岡",35.3074381,136.9772883
"サークルK","伊那中央第一",35.8420243,137.9678904
"サークルK","飯田上郷別府",35.5064221,137.8526454
"サークルK","美濃加茂蜂屋町",35.4718819,137.0000398
